$GPRMC,073229.00,A,5250.53674,N,00542.34789,E,0.036,,260420,,,A*5*73
!AIVDM,1,1,,A,13`nu=PP000J9AFN?7J00?vB085B,0*5E
$GPRMC,073309.00,A,5250.53662,N,00542.34806,E,0.010,,260420,,,A*71
$GPVTG,,T,,M,0.010,N,0.019,K,A*2A
$GPGGA,073309.00,5250.53662,N,00542.34806,E,1,09,1.02,2.9,M,45.8,M,,*56
$GPGSA,A,3,20,19,12,24,10,28,17,13,15,,,,2.33,1.02,2.10*04
$GPGSV,3,1,11,01,04,028,09,10,24,309,23,12,22,215,38,13,35,146,28*72
$GPGSV,3,2,11,15,56,184,27,17,36,088,38,19,30,117,29,20,24,273,35*7C
$GPGSV,3,3,11,24,60,278,36,28,30,052,36,39,10,116,*47
$GPGLL,5250.53662,N,00542.34806,E,073309.00,A,A*6B
!AIVDM,1,1,,B,13aGt4@P00PIws`N?eu00?vBR85`,0*79
!AIVDM,1,1,,A,13aEP6?P000J8dPN?6Iv4?vB0D0>,0*42
$GPRMC,073310.00,A,5250.53660,N,00542.34808,E,0.008,,260420,,,A*7C
$GPVTG,,T,,M,0.008,N,0.016,K,A*2C
$GPGGA,073310.00,5250.53660,N,00542.34808,E,1,09,0.89,2.8,M,45.8,M,,*51
$GPGSA,A,3,20,19,12,24,10,28,17,13,15,,,,2.20,0.89,2.01*04
$GPGSV,3,1,11,01,04,028,09,10,24,309,22,12,22,215,37,13,35,146,28*7C
!AIVDM,1,1,,B,140Ut9@P000J91rN?33h0?vD0H65,0*47
$GPGSV,3,2,11,15,56,184,27,17,36,088,38,19,30,117,28,20,24,273,35*7D
$GPGSV,3,3,11,24,60,278,36,28,30,052,36,39,10,116,*47
$GPGLL,5250.53660,N,00542.34808,E,073310.00,A,A*6F
$GPRMC,073311.00,A,5250.53659,N,00542.34809,E,0.014,,260420,,,A*7B
$GPVTG,,T,,M,0.014,N,0.026,K,A*22
$GPGGA,073311.00,5250.53659,N,00542.34809,E,1,09,0.89,2.8,M,45.8,M,,*5B
$GPGSA,A,3,20,19,12,24,10,28,17,13,15,,,,2.20,0.89,2.01*04
$GPGSV,3,1,11,01,04,028,09,10,24,309,22,12,22,215,37,13,35,146,27*73
$GPGSV,3,2,11,15,56,184,27,17,36,088,38,19,30,117,27,20,24,273,34*73
$GPGSV,3,3,11,24,60,278,36,28,30,052,36,39,10,116,*47
$GPGLL,5250.53659,N,00542.34809,E,073311.00,A,A*65
!AIVDM,1,1,,A,B3`h?oh00h6RPdWSj0iKswUUoP06,0*1E
$GPRMC,073312.00,A,5250.53658,N,00542.34810,E,0.015,,260420,,,A*70
$GPVTG,,T,,M,0.015,N,0.027,K,A*22
$GPGGA,073312.00,5250.53658,N,00542.34810,E,1,09,0.89,2.7,M,45.8,M,,*5E
$GPGSA,A,3,20,19,12,24,10,28,17,13,15,,,,2.20,0.89,2.01*04
$GPGSV,3,1,11,01,04,028,09,10,24,309,23,12,22,215,37,13,35,146,27*72
$GPGSV,3,2,11,15,56,184,27,17,36,088,39,19,30,117,27,20,24,273,34*72
$GPGSV,3,3,11,24,60,278,36,28,30,052,36,39,10,116,*47
$GPGLL,5250.53658,N,00542.34810,E,073312.00,A,A*6F
$GPRMC,073313.00,A,5250.53656,N,00542.34812,E,0.058,,260420,,,A*74
$GPVTG,,T,,M,0.058,N,0.108,K,A*27
$GPGGA,073313.00,5250.53656,N,00542.34812,E,1,09,0.89,2.6,M,45.8,M,,*52
$GPGSA,A,3,20,19,12,24,10,28,17,13,15,,,,2.20,0.89,2.01*04
$GPGSV,3,1,11,01,04,028,09,10,24,309,22,12,22,215,36,13,35,146,27*72
$GPGSV,3,2,11,15,56,184,27,17,36,088,38,19,30,117,27,20,24,273,34*73
!AIVDM,1,1,,B,13`lK<P00O0Iw<DN?Q<hg@VJP0Rh,0*20
$GPGSV,3,3,11,24,60,278,36,28,30,052,36,39,10,116,*47
$GPGLL,5250.53656,N,00542.34812,E,073313.00,A,A*62
!AIVDM,1,1,,B,13`mgh@000PJ7epN?5Qf46PL00R`,0*32
$GPRMC,073314.00,A,5250.53656,N,00542.34812,E,0.031,,260420,,,A*7C
$GPVTG,,T,,M,0.031,N,0.058,K,A*2C
$GPGGA,073314.00,5250.53656,N,00542.34812,E,1,09,0.89,2.5,M,45.8,M,,*56
$GPGSA,A,3,20,19,12,24,10,28,17,13,15,,,,2.20,0.89,2.01*04
$GPGSV,3,1,11,01,04,028,17,10,24,309,22,12,22,215,36,13,35,146,28*72
$GPGSV,3,2,11,15,56,184,27,17,36,088,38,19,30,117,27,20,24,273,34*73
$GPGSV,3,3,11,24,60,278,36,28,30,052,36,39,10,116,*47
$GPGLL,5250.53656,N,00542.34812,E,073314.00,A,A*65
$GPRMC,073315.00,A,5250.53655,N,00542.34812,E,0.043,,260420,,,A*7B
$GPVTG,,T,,M,0.043,N,0.079,K,A*2A
$GPGGA,073315.00,5250.53655,N,00542.34812,E,1,09,0.89,2.4,M,45.8,M,,*55
$GPGSA,A,3,20,19,12,24,10,28,17,13,15,,,,2.20,0.89,2.01*04
$GPGSV,3,1,11,01,04,028,17,10,24,309,22,12,22,215,36,13,35,146,28*72
$GPGSV,3,2,11,15,56,184,27,17,36,088,38,19,30,117,27,20,24,273,34*73
$GPGSV,3,3,11,24,60,278,36,28,30,052,36,39,10,116,*47
$GPGLL,5250.53655,N,00542.34812,E,073315.00,A,A*67
!AIVDM,1,1,,B,13aGrVHP000J8W0N?5>P0?vN04r4,0*47
$GPRMC,073316.00,A,5250.53653,N,00542.34813,E,0.036,,260420,,,A*7D
$GPVTG,,T,,M,0.036,N,0.067,K,A*27
$GPGGA,073316.00,5250.53653,N,00542.34813,E,1,09,0.89,2.4,M,45.8,M,,*51
$GPGSA,A,3,20,19,12,24,10,28,17,13,15,,,,2.20,0.89,2.01*04
!AIVDM,1,1,,A,33aGEvmP000J1fHN?Och0?vN2000,0*6B
$GPGSV,3,1,11,01,04,028,17,10,24,309,22,12,22,215,36,13,35,146,27*7D
$GPGSV,3,2,11,15,56,184,26,17,36,088,38,19,30,117,27,20,24,273,34*72
$GPGSV,3,3,11,24,60,278,35,28,30,052,36,39,10,116,*44
$GPGLL,5250.53653,N,00542.34813,E,073316.00,A,A*63
!AIVDM,1,1,,B,13aDq30P00PJ8BBN?0>@0?vP20RT,0*10
$GPRMC,073317.00,A,5250.53649,N,00542.34814,E,0.005,,260420,,,A*70
$GPVTG,,T,,M,0.005,N,0.010,K,A*27
$GPGGA,073317.00,5250.53649,N,00542.34814,E,1,09,0.89,2.3,M,45.8,M,,*5B
$GPGSA,A,3,20,19,12,24,10,28,17,13,15,,,,2.20,0.89,2.01*04
$GPGSV,3,1,11,01,04,028,17,10,24,309,22,12,22,215,36,13,35,146,27*7D
$GPGSV,3,2,11,15,56,184,26,17,36,088,38,19,30,117,27,20,24,273,34*72
$GPGSV,3,3,11,24,60,278,35,28,30,052,36,39,10,116,*44
$GPGLL,5250.53649,N,00542.34814,E,073317.00,A,A*6E
$GPRMC,073318.00,A,5250.53647,N,00542.34815,E,0.011,,260420,,,A*75
$GPVTG,,T,,M,0.011,N,0.020,K,A*21
$GPGGA,073318.00,5250.53647,N,00542.34815,E,1,09,0.89,2.3,M,45.8,M,,*5B
$GPGSA,A,3,20,19,12,24,10,28,17,13,15,,,,2.20,0.89,2.01*04
$GPGSV,3,1,11,01,04,028,17,10,24,309,23,12,22,215,35,13,35,146,27*7F
$GPGSV,3,2,11,15,56,184,26,17,36,088,39,19,30,117,27,20,24,273,34*73
$GPGSV,3,3,11,24,60,278,35,28,30,052,36,39,10,116,*44
$GPGLL,5250.53647,N,00542.34815,E,073318.00,A,A*6E
$GPRMC,073319.00,A,5250.53644,N,00542.34816,E,0.006,,260420,,,A*72
$GPVTG,,T,,M,0.006,N,0.012,K,A*26
$GPGGA,073319.00,5250.53644,N,00542.34816,E,1,09,0.89,2.2,M,45.8,M,,*5B
$GPGSA,A,3,20,19,12,24,10,28,17,13,15,,,,2.20,0.89,2.01*04
!AIVDM,1,1,,B,13`nu=PP000J9AVN?7NP0?vV0H;D,0*45
$GPGSV,3,1,11,01,04,028,17,10,24,309,22,12,22,215,35,13,35,146,27*7E
!AIVDM,1,1,,A,140Ut9@P000J91nN?34@0?vV04r4,0*5C
$GPGSV,3,2,11,15,56,184,26,17,36,088,39,19,30,117,27,20,24,273,34*73
$GPGSV,3,3,11,24,60,278,35,28,30,052,36,39,10,116,*44
$GPGLL,5250.53644,N,00542.34816,E,073319.00,A,A*6F
!AIVDM,1,1,,A,13aGt4@P00PIws`N?eth0?vVR@;O,0*6E
!AIVDM,1,1,,B,13aEP6?P000J8dHN?6Ev4?vV0<0>,0*39
$GPRMC,073320.00,A,5250.53640,N,00542.34818,E,0.020,,260420,,,A*76
$GPVTG,,T,,M,0.020,N,0.037,K,A*25
$GPGGA,073320.00,5250.53640,N,00542.34818,E,1,09,0.89,2.2,M,45.8,M,,*5B
$GPGSA,A,3,20,19,12,24,10,28,17,13,15,,,,2.20,0.89,2.01*04
$GPGSV,3,1,11,01,04,028,,10,24,309,23,12,22,215,35,13,35,146,26*78
$GPGSV,3,2,11,15,56,184,26,17,36,088,38,19,30,117,27,20,24,273,34*72
$GPGSV,3,3,11,24,60,278,35,28,30,052,36,39,10,116,*44
$GPGLL,5250.53640,N,00542.34818,E,073320.00,A,A*6F
$GPRMC,073321.00,A,5250.53634,N,00542.34819,E,0.051,,260420,,,A*73
$GPVTG,,T,,M,0.051,N,0.095,K,A*2B
$GPGGA,073321.00,5250.53634,N,00542.34819,E,1,09,0.89,2.2,M,45.8,M,,*58
$GPGSA,A,3,20,19,12,24,10,28,17,13,15,,,,2.20,0.89,2.02*07
$GPGSV,3,1,11,01,04,028,,10,24,309,23,12,22,215,36,13,35,146,26*7B
$GPGSV,3,2,11,15,56,184,27,17,36,088,38,19,30,117,27,20,24,273,34*73
$GPGSV,3,3,11,24,60,278,35,28,30,052,36,39,10,116,*44
$GPGLL,5250.53634,N,00542.34819,E,073321.00,A,A*6C
$GPRMC,073322.00,A,5250.53629,N,00542.34820,E,0.003,,260420,,,A*71
$GPVTG,,T,,M,0.003,N,0.005,K,A*25
$GPGGA,073322.00,5250.53629,N,00542.34820,E,1,09,0.89,2.1,M,45.8,M,,*5E
$GPGSA,A,3,20,19,12,24,10,28,17,13,15,,,,2.20,0.89,2.02*07
$GPGSV,3,1,11,01,04,028,,10,24,309,22,12,22,215,36,13,35,146,26*7A
$GPGSV,3,2,11,15,56,184,27,17,36,088,38,19,30,117,27,20,24,273,33*74
$GPGSV,3,3,11,24,60,278,35,28,30,052,36,39,10,116,*44
$GPGLL,5250.53629,N,00542.34820,E,073322.00,A,A*69
$GPRMC,073323.00,A,5250.53626,N,00542.34819,E,0.097,,260420,,,A*78
$GPVTG,,T,,M,0.097,N,0.180,K,A*24
$GPGGA,073323.00,5250.53626,N,00542.34819,E,1,09,0.89,2.0,M,45.8,M,,*5B
!AIVDM,1,1,,B,13aFgE@P1:PItLfN>pVQQgvf2D1L,0*54
$GPGSA,A,3,20,19,12,24,10,28,17,13,15,,,,2.20,0.89,2.02*07
$GPGSV,3,1,11,01,04,028,,10,24,309,21,12,22,215,36,13,35,146,26*79
$GPGSV,3,2,11,15,56,184,26,17,36,088,38,19,30,117,27,20,24,273,33*75
$GPGSV,3,3,11,24,60,278,35,28,30,052,36,39,10,116,*44
$GPGLL,5250.53626,N,00542.34819,E,073323.00,A,A*6D
!AIVDM,1,1,,A,13`mgh@000PJ7erN?5Qv46Pf0D1=,0*43
$GPRMC,073324.00,A,5250.53623,N,00542.34819,E,0.059,,260420,,,A*78
$GPVTG,,T,,M,0.059,N,0.110,K,A*2F
$GPGGA,073324.00,5250.53623,N,00542.34819,E,1,09,0.89,1.9,M,45.8,M,,*53
$GPGSA,A,3,20,19,12,24,10,28,17,13,15,,,,2.20,0.89,2.02*07
$GPGSV,3,1,11,01,04,028,15,10,24,309,21,12,22,215,36,13,35,146,26*7D
$GPGSV,3,2,11,15,56,184,26,17,36,088,38,19,30,117,27,20,24,273,33*75
$GPGSV,3,3,11,24,60,278,35,28,30,052,36,39,10,116,*44
$GPGLL,5250.53623,N,00542.34819,E,073324.00,A,A*6F
$GPRMC,073325.00,A,5250.53620,N,00542.34820,E,0.011,,260420,,,A*7C
$GPVTG,,T,,M,0.011,N,0.021,K,A*20
$GPGGA,073325.00,5250.53620,N,00542.34820,E,1,09,0.89,1.8,M,45.8,M,,*5A
$GPGSA,A,3,20,19,12,24,10,28,17,13,15,,,,2.20,0.89,2.02*07
$GPGSV,3,1,11,01,04,028,14,10,24,309,22,12,22,215,36,13,35,146,26*7F
$GPGSV,3,2,11,15,56,184,26,17,36,088,37,19,30,117,27,20,24,273,33*7A
$GPGSV,3,3,11,24,60,278,35,28,30,052,36,39,10,116,*44
$GPGLL,5250.53620,N,00542.34820,E,073325.00,A,A*67
!AIVDM,1,1,,A,13aGrVHP000J8VtN?5>h0?vj0@?4,0*24
!AIVDM,1,1,,A,33aKWs5P00PJ0ADN?jVbvgvJRDJJ,0*76
!AIVDM,1,1,,A,13aDq30P00PJ8AtN?0>h0?vl2D0S,0*23
$GPRMC,073326.00,A,5250.53615,N,00542.34820,E,0.024,,260420,,,A*7F
$GPVTG,,T,,M,0.024,N,0.045,K,A*24
$GPGGA,073326.00,5250.53615,N,00542.34820,E,1,09,0.89,1.6,M,45.8,M,,*51
$GPGSA,A,3,20,19,12,24,10,28,17,13,15,,,,2.20,0.89,2.02*07
$GPGSV,3,1,11,01,04,028,12,10,24,309,20,12,22,215,37,13,35,146,26*7A
$GPGSV,3,2,11,15,56,184,26,17,36,088,37,19,30,117,27,20,24,273,33*7A
$GPGSV,3,3,11,24,60,278,35,28,30,052,36,39,10,116,*44
$GPGLL,5250.53615,N,00542.34820,E,073326.00,A,A*62
$GPRMC,073327.00,A,5250.53610,N,00542.34821,E,0.014,,260420,,,A*79
$GPVTG,,T,,M,0.014,N,0.026,K,A*22
$GPGGA,073327.00,5250.53610,N,00542.34821,E,1,09,0.89,1.6,M,45.8,M,,*54
$GPGSA,A,3,20,19,12,24,10,28,17,13,15,,,,2.20,0.89,2.02*07
$GPGSV,3,1,11,01,04,028,13,10,24,309,19,12,22,215,37,13,35,146,26*71
$GPGSV,3,2,11,15,56,184,26,17,36,088,37,19,30,117,28,20,24,273,32*74
$GPGSV,3,3,11,24,60,278,35,28,30,052,36,39,10,116,*44
$GPGLL,5250.53610,N,00542.34821,E,073327.00,A,A*67
$GPRMC,073328.00,A,5250.53606,N,00542.34823,E,0.047,,260420,,,A*75
$GPVTG,,T,,M,0.047,N,0.086,K,A*2E
$GPGGA,073328.00,5250.53606,N,00542.34823,E,1,09,0.89,1.5,M,45.8,M,,*5D
$GPGSA,A,3,20,19,12,24,10,28,17,13,15,,,,2.20,0.89,2.02*07
$GPGSV,3,1,11,01,04,028,12,10,24,309,20,12,22,215,37,13,35,146,26*7A
!AIVDM,1,1,,B,13aGt4@P00PIwsfN?eu@0?vpR<1T,0*09
$GPGSV,3,2,11,15,56,184,26,17,36,088,37,19,30,117,28,20,24,273,32*74
$GPGSV,3,3,11,24,60,278,35,28,30,052,37,39,10,116,*45
$GPGLL,5250.53606,N,00542.34823,E,073328.00,A,A*6D
!AIVDM,1,1,,A,33aGtiE0000J9UrN?2@P05lr0DSb,0*01
!AIVDM,1,1,,B,13aDp8hP00PIwU8N?`NN4?vr2L0u,0*54
$GPRMC,073329.00,A,5250.53602,N,00542.34826,E,0.024,,260420,,,A*70
$GPVTG,,T,,M,0.024,N,0.044,K,A*25
$GPGGA,073329.00,5250.53602,N,00542.34826,E,1,09,0.89,1.5,M,45.8,M,,*5D
$GPGSA,A,3,20,19,12,24,10,28,17,13,15,,,,2.20,0.89,2.02*07
$GPGSV,3,1,11,01,05,027,13,10,24,309,22,12,22,215,37,13,35,146,25*74
!AIVDM,1,1,,A,13aEP6?P000J8d:N?6Dv4?vr0<0>,0*6D
$GPGSV,3,2,11,15,56,184,26,17,36,088,37,19,30,117,28,20,24,273,32*74
$GPGSV,3,3,11,24,60,278,35,28,30,052,36,39,10,116,*44
$GPGLL,5250.53602,N,00542.34826,E,073329.00,A,A*6D
!AIVDM,1,1,,B,H39Qq:0lDE8<5@u800000000000,2*2E
!AIVDM,1,1,,A,13`nu=PP000J9AhN?7Qh0?vr0<0T,0*14
!AIVDM,1,1,,B,H39Qq:4T000000042lmjj01`0310,0*49
$GPRMC,073330.00,A,5250.53599,N,00542.34827,E,0.040,,260420,,,A*7A
$GPVTG,,T,,M,0.040,N,0.074,K,A*24
$GPGGA,073330.00,5250.53599,N,00542.34827,E,1,10,0.89,1.4,M,45.8,M,,*5C
$GPGSA,A,3,20,19,12,01,24,10,28,17,13,15,,,2.20,0.89,2.02*06
$GPGSV,3,1,11,01,05,027,13,10,24,309,23,12,22,215,37,13,35,146,25*75
!AIVDM,1,1,,B,140Ut9@P000J91lN?34h0?vt0D0h,0*39
$GPGSV,3,2,11,15,56,184,27,17,36,088,36,19,30,117,28,20,24,273,31*77
$GPGSV,3,3,11,24,60,278,35,28,30,052,37,39,10,116,*45
$GPGLL,5250.53599,N,00542.34827,E,073330.00,A,A*65
$GPRMC,073331.00,A,5250.53596,N,00542.34830,E,0.032,,260420,,,A*77
$GPVTG,,T,,M,0.032,N,0.059,K,A*2E
$GPGGA,073331.00,5250.53596,N,00542.34830,E,1,10,0.89,1.4,M,45.8,M,,*54
$GPGSA,A,3,20,19,12,01,24,10,28,17,13,15,,,2.20,0.89,2.02*06
$GPGSV,3,1,11,01,05,027,13,10,24,309,23,12,22,215,37,13,35,146,25*75
$GPGSV,3,2,11,15,56,184,27,17,36,088,37,19,30,117,28,20,24,273,31*76
$GPGSV,3,3,11,24,60,278,35,28,30,052,37,39,10,116,*45
$GPGLL,5250.53596,N,00542.34830,E,073331.00,A,A*6D
$GPRMC,073332.00,A,5250.53591,N,00542.34835,E,0.022,,260420,,,A*77
$GPVTG,,T,,M,0.022,N,0.041,K,A*26
$GPGGA,073332.00,5250.53591,N,00542.34835,E,1,09,0.89,1.4,M,45.8,M,,*5D
$GPGSA,A,3,20,19,12,24,10,28,17,13,15,,,,2.20,0.89,2.02*07
$GPGSV,3,1,11,01,05,027,,10,24,309,24,12,22,215,37,13,35,146,25*70
$GPGSV,3,2,11,15,56,184,27,17,36,088,37,19,30,117,27,20,24,273,31*79
$GPGSV,3,3,11,24,60,278,35,28,30,052,37,39,10,116,*45
$GPGLL,5250.53591,N,00542.34835,E,073332.00,A,A*6C
$GPRMC,073333.00,A,5250.53585,N,00542.34839,E,0.018,,260420,,,A*76
$GPVTG,,T,,M,0.018,N,0.033,K,A*2A
$GPGGA,073333.00,5250.53585,N,00542.34839,E,1,10,0.89,1.4,M,45.8,M,,*5D
$GPGSA,A,3,20,19,12,01,24,10,28,17,13,15,,,2.20,0.89,2.02*06
$GPGSV,3,1,11,01,05,027,16,10,24,309,25,12,22,215,37,13,35,146,25*76
$GPGSV,3,2,11,15,56,184,27,17,36,088,37,19,30,117,27,20,24,273,31*79
$GPGSV,3,3,11,24,60,278,35,28,30,052,37,39,10,116,*45
$GPGLL,5250.53585,N,00542.34839,E,073333.00,A,A*64
!AIVDM,1,1,,A,13aFgE@P19PItStN>qBiNww220RV,0*23
!AIVDM,1,1,,A,B3aQ6Wh00H6Qhv7Sju53kwhUoP06,0*3A
!AIVDM,1,1,,B,13`mgh@000PJ7erN?5Qf46Q20L1=,0*0D
!AIVDM,1,1,,A,13aGEVhP000IwipN?cjf4?w20hCr,0*07
$GPRMC,073334.00,A,5250.53579,N,00542.34842,E,0.010,,260420,,,A*76
$GPVTG,,T,,M,0.010,N,0.018,K,A*2B
$GPGGA,073334.00,5250.53579,N,00542.34842,E,1,10,0.89,1.4,M,45.8,M,,*55
$GPGSA,A,3,20,19,12,01,24,10,28,17,13,15,,,2.20,0.89,2.02*06
$GPGSV,3,1,11,01,05,027,17,10,24,309,25,12,22,215,37,13,35,146,26*74
$GPGSV,3,2,11,15,56,184,27,17,36,088,37,19,30,117,27,20,24,273,31*79
$GPGSV,3,3,11,24,60,278,35,28,30,052,37,39,10,116,*45
$GPGLL,5250.53579,N,00542.34842,E,073334.00,A,A*6C
$GPRMC,073335.00,A,5250.53575,N,00542.34846,E,0.024,,260420,,,A*78
$GPVTG,,T,,M,0.024,N,0.045,K,A*24
$GPGGA,073335.00,5250.53575,N,00542.34846,E,1,10,0.89,1.5,M,45.8,M,,*5D
!AIVDM,1,1,,B,13aGrVHP000J8VtN?5@00?w60@Db,0*71
$GPGSA,A,3,20,19,12,01,24,10,28,17,13,15,,,2.20,0.89,2.02*06
$GPGSV,3,1,11,01,05,027,18,10,24,309,25,12,22,215,37,13,35,146,27*7A
$GPGSV,3,2,11,15,56,184,27,17,36,088,37,19,30,117,27,20,24,273,31*79
$GPGSV,3,3,11,24,60,278,35,28,30,052,37,39,10,116,*45
$GPGLL,5250.53575,N,00542.34846,E,073335.00,A,A*65
$GPRMC,073336.00,A,5250.53571,N,00542.34850,E,0.018,,260420,,,A*77
$GPVTG,,T,,M,0.018,N,0.034,K,A*2D
$GPGGA,073336.00,5250.53571,N,00542.34850,E,1,10,0.89,1.5,M,45.8,M,,*5D
$GPGSA,A,3,20,19,12,01,24,10,28,17,13,15,,,2.20,0.89,2.02*06
$GPGSV,3,1,11,01,05,027,16,10,24,309,25,12,22,215,38,13,35,146,27*7B
$GPGSV,3,2,11,15,56,184,28,17,36,088,37,19,30,117,27,20,24,273,31*76
$GPGSV,3,3,11,24,60,278,35,28,30,052,37,39,10,116,*45
$GPGLL,5250.53571,N,00542.34850,E,073336.00,A,A*65
$GPRMC,073337.00,A,5250.53567,N,00542.34853,E,0.026,,260420,,,A*7F
$GPVTG,,T,,M,0.026,N,0.048,K,A*2B
$GPGGA,073337.00,5250.53567,N,00542.34853,E,1,09,0.89,1.5,M,45.8,M,,*50
$GPGSA,A,3,20,19,12,24,10,28,17,13,15,,,,2.20,0.89,2.02*07
$GPGSV,3,1,11,01,05,027,,10,24,309,24,12,22,215,37,13,35,146,27*72
$GPGSV,3,2,11,15,56,184,29,17,36,088,38,19,30,117,27,20,24,273,31*78
$GPGSV,3,3,11,24,60,278,35,28,30,052,37,39,10,116,*45
$GPGLL,5250.53567,N,00542.34853,E,073337.00,A,A*60
$GPRMC,073338.00,A,5250.53561,N,00542.34856,E,0.079,,260420,,,A*79
$GPVTG,,T,,M,0.079,N,0.146,K,A*2E
!AIVDM,1,1,,A,33aGt4@P00PIwsdN?evP0?w<RC9S,0*24
$GPGGA,073338.00,5250.53561,N,00542.34856,E,1,09,0.89,1.6,M,45.8,M,,*5F
$GPGSA,A,3,20,19,12,24,10,28,17,13,15,,,,2.20,0.89,2.02*07
$GPGSV,3,1,11,01,05,027,,10,24,308,24,12,22,215,37,13,35,146,26*72
$GPGSV,3,2,11,15,56,184,29,17,36,088,37,19,30,117,27,20,24,273,31*77
$GPGSV,3,3,11,24,60,278,35,28,30,052,37,39,10,116,*45
$GPGLL,5250.53561,N,00542.34856,E,073338.00,A,A*6C
!AIVDM,1,1,,B,13`nu=PP000J9AJN?7Rh0?w<00Sa,0*23
!AIVDM,1,1,,B,13aEP6?P000J8d4N?6DN4?w<0@Fn,0*4D
$GPRMC,073339.00,A,5250.53554,N,00542.34861,E,0.093,,260420,,,A*7E
$GPVTG,,T,,M,0.093,N,0.173,K,A*2C
$GPGGA,073339.00,5250.53554,N,00542.34861,E,1,09,0.89,1.7,M,45.8,M,,*5D
$GPGSA,A,3,20,19,12,24,10,28,17,13,15,,,,2.21,0.89,2.02*06
$GPGSV,3,1,11,01,05,027,,10,24,308,22,12,22,215,37,13,35,146,27*75
$GPGSV,3,2,11,15,56,184,29,17,36,088,38,19,30,117,27,20,24,273,31*78
$GPGSV,3,3,11,24,60,278,35,28,30,052,37,39,10,116,*45
$GPGLL,5250.53554,N,00542.34861,E,073339.00,A,A*6F
$GPRMC,073340.00,A,5250.53546,N,00542.34867,E,0.084,,260420,,,A*73
!AIVDM,1,1,,A,140Ut9@P000J91tN?34@0?w@0@GS,0*77
$GPVTG,,T,,M,0.084,N,0.156,K,A*2D
$GPGGA,073340.00,5250.53546,N,00542.34867,E,1,10,0.89,1.8,M,45.8,M,,*51
$GPGSA,A,3,20,19,12,01,24,10,28,17,13,15,,,2.21,0.89,2.02*07
$GPGSV,3,1,11,01,05,027,19,10,24,308,22,12,22,215,37,13,35,146,27*7D
$GPGSV,3,2,11,15,56,184,30,17,36,088,38,19,30,117,27,20,24,273,31*70
$GPGSV,3,3,11,24,60,278,35,28,30,052,38,39,10,116,*4A
$GPGLL,5250.53546,N,00542.34867,E,073340.00,A,A*64
$GPRMC,073341.00,A,5250.53537,N,00542.34872,E,0.061,,260420,,,A*7B
$GPVTG,,T,,M,0.061,N,0.113,K,A*27
$GPGGA,073341.00,5250.53537,N,00542.34872,E,1,10,0.89,1.9,M,45.8,M,,*53
$GPGSA,A,3,20,19,12,01,24,10,28,17,13,15,,,2.21,0.89,2.02*07
$GPGSV,3,1,11,01,05,027,19,10,24,308,20,12,22,215,37,13,35,146,26*7E
!AIVDM,1,1,,B,H3`hC?i04hh4@UDl00000000000,2*7C
$GPGSV,3,2,11,15,56,184,30,17,36,088,38,19,30,117,27,20,24,273,31*70
$GPGSV,3,3,11,24,60,278,35,28,30,052,38,39,10,116,*4A
$GPGLL,5250.53537,N,00542.34872,E,073341.00,A,A*67
$GPRMC,073342.00,A,5250.53531,N,00542.34874,E,0.066,,260420,,,A*7F
$GPVTG,,T,,M,0.066,N,0.121,K,A*21
$GPGGA,073342.00,5250.53531,N,00542.34874,E,1,10,0.89,1.9,M,45.8,M,,*50
!AIVDM,1,1,,B,H3`hC?lT0000000@9jomo01H0030,0*16
$GPGSA,A,3,20,19,12,01,24,10,28,17,13,15,,,2.21,0.89,2.02*07
$GPGSV,3,1,11,01,05,027,19,10,24,308,19,12,22,215,37,13,35,146,25*77
$GPGSV,3,2,11,15,56,184,30,17,36,088,38,19,30,117,27,20,24,273,31*70
$GPGSV,3,3,11,24,60,278,35,28,30,052,38,39,10,116,*4A
$GPGLL,5250.53531,N,00542.34874,E,073342.00,A,A*64
!AIVDM,1,1,,B,340UvTmP010J97pN?3nFrOwB0DWb,0*7E
!AIVDM,1,1,,A,13`mgh@000PJ7erN?5Qf46QD04r4,0*4A
$GPRMC,073343.00,A,5250.53525,N,00542.34874,E,0.030,,260420,,,A*78
$GPVTG,,T,,M,0.030,N,0.056,K,A*23
$GPGGA,073343.00,5250.53525,N,00542.34874,E,1,10,0.89,2.0,M,45.8,M,,*5E
!AIVDM,1,1,,B,13aFgE@P17PItajN>qn1NwwF2<1M,0*76
$GPGSA,A,3,20,19,12,01,24,10,28,17,13,15,,,2.21,0.89,2.02*07
$GPGSV,3,1,11,01,05,027,20,10,24,308,19,12,22,215,37,13,35,146,25*7D
$GPGSV,3,2,11,15,55,184,30,17,36,088,38,19,30,117,27,20,24,273,30*72
$GPGSV,3,3,11,24,60,278,35,28,30,052,38,39,10,116,*4A
!AIVDM,1,1,,B,13aGEVhP000IwipN?cjf4?wF0`IP,0*50
$GPGLL,5250.53525,N,00542.34874,E,073343.00,A,A*60
!AIVDM,1,1,,A,B3aBKr00086R94WSj9837wmUoP06,0*31
$GPRMC,073344.00,A,5250.53518,N,00542.34875,E,0.034,,260420,,,A*74
$GPVTG,,T,,M,0.034,N,0.063,K,A*21
$GPGGA,073344.00,5250.53518,N,00542.34875,E,1,10,0.89,2.0,M,45.8,M,,*56
$GPGSA,A,3,20,19,12,01,24,10,28,17,13,15,,,2.21,0.89,2.02*07
$GPGSV,3,1,11,01,05,027,21,10,24,308,18,12,22,215,36,13,35,146,25*7C
$GPGSV,3,2,11,15,55,184,31,17,36,088,37,19,30,117,27,20,24,273,30*7C
$GPGSV,3,3,11,24,60,278,35,28,30,052,38,39,10,116,*4A
$GPGLL,5250.53518,N,00542.34875,E,073344.00,A,A*68
!AIVDM,1,1,,B,B3aOA>@0086Q9bWSrTR?cwn5oP06,0*78
$GPRMC,073345.00,A,5250.53512,N,00542.34875,E,0.036,,260420,,,A*7D
$GPVTG,,T,,M,0.036,N,0.066,K,A*26
$GPGGA,073345.00,5250.53512,N,00542.34875,E,1,10,0.89,2.0,M,45.8,M,,*5D
!AIVDM,1,1,,A,33aDq30P00PJ8BLN?0@@0?wJ2BpS,0*2D
$GPGSA,A,3,20,19,12,01,24,10,28,17,13,15,,,2.21,0.89,2.02*07
$GPGSV,3,1,11,01,05,027,21,10,24,308,19,12,22,215,36,13,35,146,26*7E
$GPGSV,3,2,11,15,55,184,30,17,36,087,37,19,30,117,27,20,24,273,31*73
!AIVDM,1,1,,A,13aGrVHP000J8W6N?5@P0?wJ00SJ,0*62
$GPGSV,3,3,11,24,60,278,36,28,30,052,38,39,10,116,*49
$GPGLL,5250.53512,N,00542.34875,E,073345.00,A,A*63
$GPRMC,073346.00,A,5250.53508,N,00542.34872,E,0.017,,260420,,,A*71
$GPVTG,,T,,M,0.017,N,0.031,K,A*27
$GPGGA,073346.00,5250.53508,N,00542.34872,E,1,10,0.89,1.8,M,45.8,M,,*59
$GPGSA,A,3,20,19,12,01,24,10,28,17,13,15,,,2.21,0.89,2.02*07
$GPGSV,3,1,11,01,05,027,21,10,24,308,21,12,22,215,36,13,35,146,26*75
$GPGSV,3,2,11,15,55,184,30,17,36,087,37,19,30,117,27,20,24,273,32*70
$GPGSV,3,3,11,24,60,278,36,28,30,052,38,39,10,116,*49
$GPGLL,5250.53508,N,00542.34872,E,073346.00,A,A*6C
$GPRMC,073347.00,A,5250.53501,N,00542.34872,E,0.016,,260420,,,A*78
$GPVTG,,T,,M,0.016,N,0.030,K,A*27
$GPGGA,073347.00,5250.53501,N,00542.34872,E,1,10,0.89,1.8,M,45.8,M,,*51
$GPGSA,A,3,20,19,12,01,24,10,28,17,13,15,,,2.21,0.89,2.02*07
$GPGSV,3,1,11,01,05,027,19,10,24,308,21,12,22,215,36,13,35,146,26*7E
$GPGSV,3,2,11,15,55,184,30,17,36,087,37,19,30,117,27,20,24,273,31*73
$GPGSV,3,3,11,24,60,278,36,28,30,052,38,39,10,116,*49
$GPGLL,5250.53501,N,00542.34872,E,073347.00,A,A*64
$GPRMC,073348.00,A,5250.53493,N,00542.34871,E,0.053,,260420,,,A*7F
$GPVTG,,T,,M,0.053,N,0.099,K,A*25
$GPGGA,073348.00,5250.53493,N,00542.34871,E,1,10,0.89,1.8,M,45.8,M,,*57
$GPGSA,A,3,20,19,12,01,24,10,28,17,13,15,,,2.21,0.89,2.02*07
!AIVDM,1,1,,B,13aDp8hP00PIwU4N?`Jf4?wP2D0u,0*5F
$GPGSV,3,1,11,01,05,027,17,10,24,308,22,12,22,215,36,13,35,146,27*72
$GPGSV,3,2,11,15,55,184,30,17,36,087,37,19,30,117,27,20,24,272,32*71
$GPGSV,3,3,11,24,60,278,36,28,30,052,38,39,10,116,*49
$GPGLL,5250.53493,N,00542.34871,E,073348.00,A,A*62
!AIVDM,1,1,,A,13aEP6?P000J8d0N?6Df4?wP08LN,0*5C
$GPRMC,073349.00,A,5250.53489,N,00542.34870,E,0.043,,260420,,,A*75
$GPVTG,,T,,M,0.043,N,0.080,K,A*2C
$GPGGA,073349.00,5250.53489,N,00542.34870,E,1,10,0.89,1.6,M,45.8,M,,*52
$GPGSA,A,3,20,19,12,01,24,10,28,17,13,15,,,2.21,0.89,2.02*07
$GPGSV,3,1,11,01,05,027,15,10,24,308,22,12,22,215,36,13,35,146,27*70
$GPGSV,3,2,11,15,55,184,31,17,36,087,37,19,30,117,28,20,24,272,32*7F
$GPGSV,3,3,11,24,60,278,36,28,30,052,37,39,10,116,*46
$GPGLL,5250.53489,N,00542.34870,E,073349.00,A,A*69
!AIVDM,1,1,,B,33`e?mUP00PJ96VN?7Ib`OwR2DU:,0*4A
$GPRMC,073350.00,A,5250.53483,N,00542.34869,E,0.066,,260420,,,A*78
$GPVTG,,T,,M,0.066,N,0.122,K,A*22
$GPGGA,073350.00,5250.53483,N,00542.34869,E,1,10,0.89,1.6,M,45.8,M,,*58
$GPGSA,A,3,20,19,12,01,24,10,28,17,13,15,,,2.21,0.89,2.02*07
$GPGSV,3,1,11,01,05,027,13,10,24,308,21,12,22,215,36,13,35,146,27*75
!AIVDM,1,1,,A,13`nu=PP000J9AVN?7RP0?wT0<0T,0*36
$GPGSV,3,2,11,15,55,184,31,17,36,087,37,19,30,117,29,20,24,272,31*7D
$GPGSV,3,3,11,24,60,278,36,28,30,052,38,39,10,116,*49
$GPGLL,5250.53483,N,00542.34869,E,073350.00,A,A*63
!AIVDM,1,1,,A,H3aEQ@@`4LE8000000000000000,2*7F
!AIVDM,1,1,,B,140Ut9@P000J922N?34@0?wT08Me,0*61
$GPRMC,073351.00,A,5250.53481,N,00542.34867,E,0.007,,260420,,,A*72
$GPVTG,,T,,M,0.007,N,0.013,K,A*26
$GPGGA,073351.00,5250.53481,N,00542.34867,E,1,10,0.89,1.4,M,45.8,M,,*57
$GPGSA,A,3,20,19,12,01,24,10,28,17,13,15,,,2.21,0.89,2.02*07
$GPGSV,3,1,11,01,05,027,13,10,24,308,22,12,22,215,36,13,35,146,27*76
$GPGSV,3,2,11,15,55,184,31,17,36,087,37,19,30,117,29,20,24,272,31*7D
$GPGSV,3,3,11,24,60,278,36,28,30,052,37,39,10,116,*46
$GPGLL,5250.53481,N,00542.34867,E,073351.00,A,A*6E
$GPRMC,073352.00,A,5250.53478,N,00542.34864,E,0.024,,260420,,,A*75
$GPVTG,,T,,M,0.024,N,0.044,K,A*25
$GPGGA,073352.00,5250.53478,N,00542.34864,E,1,10,0.89,1.3,M,45.8,M,,*56
$GPGSA,A,3,20,19,12,01,24,10,28,17,13,15,,,2.21,0.89,2.02*07
$GPGSV,3,1,11,01,05,027,13,10,24,308,22,12,22,215,37,13,35,146,27*77
$GPGSV,3,2,11,15,55,184,30,17,36,087,36,19,30,117,30,20,24,272,31*75
$GPGSV,3,3,11,24,60,278,36,28,30,052,37,39,10,116,*46
$GPGLL,5250.53478,N,00542.34864,E,073352.00,A,A*68
$GPRMC,073353.00,A,5250.53477,N,00542.34861,E,0.036,,260420,,,A*7D
$GPVTG,,T,,M,0.036,N,0.067,K,A*27
!AIVDM,1,1,,A,H3aEQ@DT@<CD9=?@5jhqj01P0030,0*06
$GPGGA,073353.00,5250.53477,N,00542.34861,E,1,10,0.89,1.0,M,45.8,M,,*5E
$GPGSA,A,3,20,19,12,01,24,10,28,17,13,15,,,2.21,0.89,2.02*07
$GPGSV,3,1,11,01,05,027,13,10,24,308,23,12,22,215,37,13,35,146,28*79
$GPGSV,3,2,11,15,55,184,31,17,36,087,36,19,30,117,30,20,24,272,31*74
$GPGSV,3,3,11,24,60,278,36,28,30,052,37,39,10,116,*46
$GPGLL,5250.53477,N,00542.34861,E,073353.00,A,A*63
!AIVDM,1,1,,A,13aFgE@P15PIthTN>rPiLgwb28OW,0*73
!AIVDM,1,1,,B,13`mgh@000PJ7etN?5Qf46Qd0<1=,0*2D
!AIVDM,1,1,,A,13aGEVhP000IwipN?cjf4?wd0hOf,0*49
$GPRMC,073354.00,A,5250.53476,N,00542.34861,E,0.013,,260420,,,A*7C
$GPVTG,,T,,M,0.013,N,0.024,K,A*27
$GPGGA,073354.00,5250.53476,N,00542.34861,E,1,10,0.89,0.7,M,45.8,M,,*5E
$GPGSA,A,3,20,19,12,01,24,10,28,17,13,15,,,2.21,0.89,2.02*07
$GPGSV,3,1,11,01,05,027,13,10,24,308,23,12,22,215,37,13,35,146,27*76
$GPGSV,3,2,11,15,55,184,31,17,36,087,36,19,30,117,30,20,24,272,31*74
$GPGSV,3,3,11,24,60,278,37,28,30,052,37,39,10,116,*47
$GPGLL,5250.53476,N,00542.34861,E,073354.00,A,A*65
!AIVDM,1,1,,A,33aPP0UP00PJ7WTN?8Uv4?wd2DLJ,0*5E
$GPRMC,073355.00,A,5250.53477,N,00542.34861,E,0.082,,260420,,,A*74
$GPVTG,,T,,M,0.082,N,0.151,K,A*2C
$GPGGA,073355.00,5250.53477,N,00542.34861,E,1,10,0.89,0.4,M,45.8,M,,*5D
$GPGSA,A,3,20,19,12,01,24,10,28,17,13,15,,,2.21,0.89,2.02*07
!AIVDM,1,1,,B,13aGrVHP000J8WDN?5@@0?wf0@PL,0*5A
$GPGSV,3,1,11,01,05,027,13,10,24,308,24,12,22,215,37,13,35,146,28*7E
$GPGSV,3,2,11,15,55,184,31,17,36,087,36,19,30,117,31,20,24,272,32*76
$GPGSV,3,3,11,24,60,278,37,28,30,052,37,39,10,116,*47
$GPGLL,5250.53477,N,00542.34861,E,073355.00,A,A*65
$GPRMC,073356.00,A,5250.53478,N,00542.34860,E,0.024,,260420,,,A*75
$GPVTG,,T,,M,0.024,N,0.045,K,A*24
!AIVDM,1,1,,B,13aDq30P00PJ8B6N?0>h0?wh28Pt,0*5F
$GPGGA,073356.00,5250.53478,N,00542.34860,E,1,10,0.89,0.1,M,45.8,M,,*55
$GPGSA,A,3,20,19,12,01,24,10,28,17,13,15,,,2.21,0.89,2.02*07
$GPGSV,3,1,11,01,05,027,08,10,24,308,25,12,22,215,37,13,35,146,28*75
$GPGSV,3,2,11,15,55,184,30,17,36,087,36,19,30,117,30,20,24,272,32*76
$GPGSV,3,3,11,24,60,278,37,28,30,052,37,39,10,116,*47
$GPGLL,5250.53478,N,00542.34860,E,073356.00,A,A*68
!AIVDM,2,1,3,A,55R3Vn82=ILTQ3KKS>1<D60Dq@E918U<F222221J1`?164vc03S1CCAD,0*23
!AIVDM,2,2,3,A,`88888888888880,2*7F
$GPRMC,073357.00,A,5250.53477,N,00542.34862,E,0.030,,260420,,,A*7C
$GPVTG,,T,,M,0.030,N,0.055,K,A*20
$GPGGA,073357.00,5250.53477,N,00542.34862,E,1,10,0.89,-0.1,M,45.8,M,,*74
$GPGSA,A,3,20,19,12,01,24,10,28,17,13,15,,,2.21,0.89,2.02*07
$GPGSV,3,1,11,01,05,027,08,10,24,308,26,12,22,215,37,13,35,146,28*76
$GPGSV,3,2,11,15,55,184,30,17,36,087,36,19,30,117,30,20,24,272,32*76
$GPGSV,3,3,11,24,60,278,37,28,30,052,37,39,10,116,*47
$GPGLL,5250.53477,N,00542.34862,E,073357.00,A,A*64
$GPRMC,073358.00,A,5250.53477,N,00542.34863,E,0.013,,260420,,,A*73
$GPVTG,,T,,M,0.013,N,0.025,K,A*26
$GPGGA,073358.00,5250.53477,N,00542.34863,E,1,10,0.89,-0.5,M,45.8,M,,*7E
!AIVDM,1,1,,A,13aGt4@P00PIwsVN?f0h0?wlR<1W,0*4A
$GPGSA,A,3,20,19,12,01,24,10,28,17,13,15,,,2.21,0.89,2.02*07
!AIVDM,1,1,,A,H39sGlPhT8E9@5<000000000000,2*5F
$GPGSV,3,1,11,01,05,027,08,10,24,308,26,12,22,215,37,13,35,146,28*76
$GPGSV,3,2,11,15,55,184,31,17,36,087,36,19,30,117,30,20,24,272,32*77
$GPGSV,3,3,11,24,60,278,37,28,30,052,37,39,10,116,*47
$GPGLL,5250.53477,N,00542.34863,E,073358.00,A,A*6A
$GPRMC,073359.00,A,5250.53475,N,00542.34863,E,0.008,,260420,,,A*7A
$GPVTG,,T,,M,0.008,N,0.016,K,A*2C
!AIVDM,2,1,4,A,53aKWs40000107;;3T0e8TLDh00000000000001?7`<44u=i05R1ADQC,0*20
!AIVDM,2,2,4,A,UQACP0000000000,2*46
$GPGGA,073359.00,5250.53475,N,00542.34863,E,1,09,0.89,-0.7,M,45.8,M,,*77
!AIVDM,1,1,,B,13`nu=PP000J9AjN?7R@0?wn0<0T,0*23
$GPGSA,A,3,20,19,12,24,10,28,17,13,15,,,,2.21,0.89,2.02*06
$GPGSV,3,1,11,01,05,027,,10,24,308,27,12,22,215,37,13,35,146,29*7E
$GPGSV,3,2,11,15,55,184,30,17,36,087,36,19,30,117,30,20,24,272,32*76
$GPGSV,3,3,11,24,60,278,37,28,30,052,37,39,10,116,*47
!AIVDM,1,1,,A,83aKWs0j2d<dtLutdiK`agaE6pP0,0*6C
$GPGLL,5250.53475,N,00542.34863,E,073359.00,A,A*69
!AIVDM,1,1,,B,13aEP6?P000J8d4N?6Fv4?wn0D0?,0*06
$GPRMC,073400.00,A,5250.53474,N,00542.34862,E,0.021,,260420,,,A*7A
$GPVTG,,T,,M,0.021,N,0.040,K,A*24
$GPGGA,073400.00,5250.53474,N,00542.34862,E,1,10,0.89,-0.9,M,45.8,M,,*7A
$GPGSA,A,3,20,19,12,01,24,10,28,17,13,15,,,2.21,0.89,2.02*07
$GPGSV,3,1,11,01,05,027,17,10,24,308,27,12,22,215,37,13,35,146,29*78
$GPGSV,3,2,11,15,55,184,30,17,36,087,36,19,30,117,30,20,24,272,32*76
$GPGSV,3,3,11,24,60,278,37,28,30,052,37,39,10,116,*47
!AIVDM,1,1,,B,B3aEQ@@0086RDdWSgEfpSwP5oP06,0*15
$GPGLL,5250.53474,N,00542.34862,E,073400.00,A,A*62
!AIVDM,1,1,,A,140Ut9@P000J926N?3400?v004r8,0*1D
$GPRMC,073401.00,A,5250.53472,N,00542.34863,E,0.019,,260420,,,A*77
$GPVTG,,T,,M,0.019,N,0.035,K,A*2D
$GPGGA,073401.00,5250.53472,N,00542.34863,E,1,10,0.89,-1.1,M,45.8,M,,*75
$GPGSA,A,3,20,19,12,01,24,10,28,17,13,15,,,2.21,0.89,2.02*07
$GPGSV,3,1,11,01,05,027,17,10,24,308,28,12,22,215,37,13,35,146,29*77
$GPGSV,3,2,11,15,55,184,30,17,36,087,37,19,30,117,30,20,24,272,32*77
$GPGSV,3,3,11,24,60,278,37,28,30,052,37,39,10,116,*47
$GPGLL,5250.53472,N,00542.34863,E,073401.00,A,A*64
!AIVDM,1,1,,B,33`p;dE000PJ7pFN?4ALA0f00Dd:,0*41
$GPRMC,073402.00,A,5250.53472,N,00542.34864,E,0.017,,260420,,,A*7D
$GPVTG,,T,,M,0.017,N,0.031,K,A*27
$GPGGA,073402.00,5250.53472,N,00542.34864,E,1,10,0.89,-1.3,M,45.8,M,,*73
$GPGSA,A,3,20,19,12,01,24,10,28,17,13,15,,,2.21,0.89,2.02*07
$GPGSV,3,1,11,01,05,027,16,10,24,308,28,12,22,215,37,13,35,146,29*76
$GPGSV,3,2,11,15,55,184,29,17,36,087,36,19,30,117,29,20,24,272,32*76
$GPGSV,3,3,11,24,60,278,37,28,30,052,37,39,10,116,*47
$GPGLL,5250.53472,N,00542.34864,E,073402.00,A,A*60
$GPRMC,073403.00,A,5250.53471,N,00542.34866,E,0.020,,260420,,,A*79
$GPVTG,,T,,M,0.020,N,0.036,K,A*24
!AIVDM,1,1,,A,13`mgh@000PJ7erN?5QN46P60<1=,0*53
$GPGGA,073403.00,5250.53471,N,00542.34866,E,1,10,0.89,-1.3,M,45.8,M,,*73
$GPGSA,A,3,20,19,12,01,24,10,28,17,13,15,,,2.21,0.89,2.02*07
$GPGSV,3,1,11,01,05,027,15,10,24,308,28,12,22,215,37,13,35,146,29*75
$GPGSV,3,2,11,15,55,184,29,17,36,087,36,19,30,117,28,20,24,272,31*74
$GPGSV,3,3,11,24,60,278,37,28,30,052,37,39,10,116,*47
$GPGLL,5250.53471,N,00542.34866,E,073403.00,A,A*60
!AIVDM,1,1,,B,13aFgE@P13PItnHN>s6iIgv624r8,0*05
$GPRMC,073404.00,A,5250.53468,N,00542.34869,E,0.018,,260420,,,A*72
$GPVTG,,T,,M,0.018,N,0.033,K,A*2A
$GPGGA,073404.00,5250.53468,N,00542.34869,E,1,10,0.89,-1.4,M,45.8,M,,*74
$GPGSA,A,3,20,19,12,01,24,10,28,17,13,15,,,2.21,0.89,2.02*07
$GPGSV,3,1,11,01,05,027,14,10,24,308,29,12,22,215,37,13,35,146,28*74
!AIVDM,1,1,,B,13aGEVhP000IwipN?cjf4?v80l0V,0*5C
$GPGSV,3,2,11,15,55,184,29,17,36,087,36,19,30,117,28,20,24,272,31*74
$GPGSV,3,3,11,24,60,278,37,28,30,052,37,39,10,116,*47
$GPGLL,5250.53468,N,00542.34869,E,073404.00,A,A*60
$GPRMC,073405.00,A,5250.53466,N,00542.34872,E,0.025,,260420,,,A*79
$GPVTG,,T,,M,0.025,N,0.046,K,A*26
!AIVDM,1,1,,A,13aGrVHP000J8WHN?5@00?v:04r8,0*5A
$GPGGA,073405.00,5250.53466,N,00542.34872,E,1,10,0.89,-1.4,M,45.8,M,,*71
$GPGSA,A,3,20,19,12,01,24,10,28,17,13,15,,,2.21,0.89,2.02*07
$GPGSV,3,1,11,01,05,027,15,10,24,308,29,12,22,215,37,13,35,146,28*75
$GPGSV,3,2,11,15,55,184,28,17,36,087,36,19,30,117,28,20,24,272,32*76
$GPGSV,3,3,11,24,60,278,37,28,30,052,36,39,10,116,*46
$GPGLL,5250.53466,N,00542.34872,E,073405.00,A,A*65
!AIVDM,1,1,,A,13aDq30P00PJ8ApN?0>h0?v<2<0S,0*0F
$GPRMC,073406.00,A,5250.53464,N,00542.34874,E,0.029,,260420,,,A*72
$GPVTG,,T,,M,0.029,N,0.054,K,A*29
$GPGGA,073406.00,5250.53464,N,00542.34874,E,1,10,0.89,-1.5,M,45.8,M,,*77
$GPGSA,A,3,20,19,12,01,24,10,28,17,13,15,,,2.21,0.89,2.02*07
$GPGSV,3,1,11,01,05,027,14,10,24,308,29,12,22,215,37,13,35,146,28*74
$GPGSV,3,2,11,15,55,184,28,17,36,087,36,19,30,117,29,20,24,272,31*74
$GPGSV,3,3,11,24,60,278,37,28,30,052,36,39,10,116,*46
$GPGLL,5250.53464,N,00542.34874,E,073406.00,A,A*62
$GPRMC,073407.00,A,5250.53464,N,00542.34876,E,0.021,,260420,,,A*79
$GPVTG,,T,,M,0.021,N,0.040,K,A*24
$GPGGA,073407.00,5250.53464,N,00542.34876,E,1,10,0.89,-1.5,M,45.8,M,,*74
$GPGSA,A,3,20,19,12,01,24,10,28,17,13,15,,,2.21,0.89,2.02*07
$GPGSV,3,1,11,01,05,027,12,10,24,308,29,12,22,215,37,13,35,146,28*72
$GPGSV,3,2,11,15,55,184,28,17,36,087,35,19,30,117,28,20,24,272,31*76
$GPGSV,3,3,11,24,60,278,37,28,30,052,36,39,10,116,*46
$GPGLL,5250.53464,N,00542.34876,E,073407.00,A,A*61
!AIVDM,1,1,,B,33aDp8hP00PIwUBN?`Ov4?v>2Bkk,0*12
$GPRMC,073408.00,A,5250.53462,N,00542.34880,E,0.028,,260420,,,A*70
$GPVTG,,T,,M,0.028,N,0.051,K,A*2D
$GPGGA,073408.00,5250.53462,N,00542.34880,E,1,10,0.89,-1.4,M,45.8,M,,*75
$GPGSA,A,3,20,19,12,01,24,10,28,17,13,15,,,2.21,0.89,2.02*07
$GPGSV,3,1,11,01,05,027,12,10,24,308,30,12,22,215,37,13,35,146,27*75
$GPGSV,3,2,11,15,55,184,28,17,36,087,36,19,30,117,28,20,24,272,31*75
$GPGSV,3,3,11,24,60,278,37,28,30,052,36,39,10,116,*46
$GPGLL,5250.53462,N,00542.34880,E,073408.00,A,A*61
!AIVDM,1,1,,A,13`nu=PP000J9B0N?7Ph0?vB04r8,0*58
$GPRMC,073409.00,A,5250.53460,N,00542.34884,E,0.017,,260420,,,A*7B
$GPVTG,,T,,M,0.017,N,0.032,K,A*24
$GPGGA,073409.00,5250.53460,N,00542.34884,E,1,10,0.89,-1.4,M,45.8,M,,*72
$GPGSA,A,3,20,19,12,01,24,10,28,17,13,15,,,2.21,0.89,2.02*07
$GPGSV,3,1,11,01,05,027,13,10,24,308,30,12,22,215,37,13,35,146,27*74
$GPGSV,3,2,11,15,55,184,28,17,36,087,36,19,30,117,29,20,24,272,31*74
$GPGSV,3,3,11,24,60,278,37,28,30,052,36,39,10,116,*46
$GPGLL,5250.53460,N,00542.34884,E,073409.00,A,A*66
!AIVDM,1,1,,B,13aGt4@P00PIwsLN?f1P0?vBR4r8,0*61
!AIVDM,1,1,,A,13aEP6?P000J8d4N?6Gf4?vB0@5e,0*62
$GPRMC,073410.00,A,5250.53459,N,00542.34888,E,0.023,,260420,,,A*72
$GPVTG,,T,,M,0.023,N,0.042,K,A*24
$GPGGA,073410.00,5250.53459,N,00542.34888,E,1,10,0.89,-1.3,M,45.8,M,,*7B
$GPGSA,A,3,20,19,12,01,24,10,28,17,13,15,,,2.21,0.89,2.02*07
$GPGSV,3,1,11,01,05,027,15,10,24,308,30,12,22,215,37,13,35,146,26*73
!AIVDM,1,1,,B,140Ut9@P000J92:N?3400?vD0D0h,0*04
$GPGSV,3,2,11,15,55,184,28,17,36,087,35,19,30,117,29,20,24,272,30*76
$GPGSV,3,3,11,24,60,278,37,28,30,052,36,39,10,116,*46
$GPGLL,5250.53459,N,00542.34888,E,073410.00,A,A*68
$GPRMC,073411.00,A,5250.53458,N,00542.34892,E,0.005,,260420,,,A*7D
$GPVTG,,T,,M,0.005,N,0.009,K,A*2F
$GPGGA,073411.00,5250.53458,N,00542.34892,E,1,10,0.89,-1.3,M,45.8,M,,*70
$GPGSA,A,3,20,19,12,01,24,10,28,17,13,15,,,2.21,0.89,2.02*07
$GPGSV,3,1,11,01,05,027,18,10,24,308,29,12,22,215,37,13,35,146,25*75
$GPGSV,3,2,11,15,55,184,28,17,36,087,35,19,30,117,29,20,24,272,30*76
$GPGSV,3,3,11,24,60,278,37,28,30,052,36,39,10,116,*46
$GPGLL,5250.53458,N,00542.34892,E,073411.00,A,A*63
$GPRMC,073412.00,A,5250.53460,N,00542.34895,E,0.025,,260420,,,A*70
$GPVTG,,T,,M,0.025,N,0.047,K,A*27
$GPGGA,073412.00,5250.53460,N,00542.34895,E,1,10,0.89,-1.4,M,45.8,M,,*78
!AIVDM,1,1,,B,B3aQeQ@0086Qk>7Sh9h5WwV5oP06,0*08
$GPGSA,A,3,20,19,12,01,24,10,28,17,13,15,,,2.21,0.89,2.02*07
$GPGSV,3,1,11,01,05,027,19,10,24,308,28,12,22,215,37,13,35,146,25*75
$GPGSV,3,2,11,15,55,184,28,17,36,087,35,19,30,117,28,20,24,272,31*76
$GPGSV,3,3,11,24,60,278,37,28,30,052,37,39,10,116,*47
$GPGLL,5250.53460,N,00542.34895,E,073412.00,A,A*6C
$GPRMC,073413.00,A,5250.53461,N,00542.34898,E,0.020,,260420,,,A*78
!AIVDM,1,1,,B,13`mgh@000PJ7etN?5QN46PJ0D1>,0*51
$GPVTG,,T,,M,0.020,N,0.038,K,A*2A
!AIVDM,1,1,,B,33=MNJ5000PJ8QJN?4:=v@T8PDV:,0*0D
$GPGGA,073413.00,5250.53461,N,00542.34898,E,1,10,0.89,-1.4,M,45.8,M,,*75
$GPGSA,A,3,20,19,12,01,24,10,28,17,13,15,,,2.21,0.89,2.02*07
$GPGSV,3,1,11,01,05,027,19,10,24,308,27,12,22,215,38,13,35,146,24*74
$GPGSV,3,2,11,15,55,184,28,17,36,087,34,19,30,117,28,20,24,272,31*77
$GPGSV,3,3,11,24,60,278,37,28,30,052,37,39,10,116,*47
$GPGLL,5250.53461,N,00542.34898,E,073413.00,A,A*61
!AIVDM,1,1,,A,13aGEVhP000IwipN?cjf4?vJ0`7u,0*05
!AIVDM,1,1,,A,13aFgE@P12PItspN>sdQFgvJ2H86,0*03
$GPRMC,073414.00,A,5250.53462,N,00542.34903,E,0.014,,260420,,,A*78
$GPVTG,,T,,M,0.014,N,0.026,K,A*22
$GPGGA,073414.00,5250.53462,N,00542.34903,E,1,10,0.89,-1.4,M,45.8,M,,*72
$GPGSA,A,3,20,19,12,01,24,10,28,17,13,15,,,2.21,0.89,2.02*07
$GPGSV,3,1,11,01,05,027,18,10,24,308,27,12,22,215,38,13,35,146,23*72
$GPGSV,3,2,11,15,55,184,28,17,36,087,35,19,30,117,28,20,24,272,31*76
$GPGSV,3,3,11,24,60,278,36,28,30,052,37,39,10,116,*46
!AIVDM,1,1,,B,B3aIi:00086Qwg7SgEwQ3wW5oP06,0*2F
$GPGLL,5250.53462,N,00542.34903,E,073414.00,A,A*66
$GPRMC,073415.00,A,5250.53463,N,00542.34908,E,0.008,,260420,,,A*7E
$GPVTG,,T,,M,0.008,N,0.015,K,A*2F
$GPGGA,073415.00,5250.53463,N,00542.34908,E,1,10,0.89,-1.4,M,45.8,M,,*79
$GPGSA,A,3,20,19,12,01,24,10,28,17,13,15,,,2.21,0.89,2.02*07
$GPGSV,3,1,11,01,05,027,17,10,24,308,26,12,22,215,37,13,35,146,21*71
$GPGSV,3,2,11,15,55,184,28,17,36,087,34,19,30,117,28,20,24,272,31*77
$GPGSV,3,3,11,24,60,278,36,28,30,052,37,39,10,116,*46
$GPGLL,5250.53463,N,00542.34908,E,073415.00,A,A*6D
!AIVDM,1,1,,B,13aDq30P00PJ8BTN?0>h0?vN2D0S,0*21
!AIVDM,1,1,,B,13aGrVHP000J8WHN?5@P0?vN00RD,0*15
$GPRMC,073416.00,A,5250.53462,N,00542.34914,E,0.107,,260420,,,A*7F
$GPVTG,,T,,M,0.107,N,0.199,K,A*24
!AIVDM,1,1,,A,H3aKWqi1U8tiU<D000000000000,2*56
$GPGGA,073416.00,5250.53462,N,00542.34914,E,1,10,0.89,-1.4,M,45.8,M,,*76
$GPGSA,A,3,20,19,12,01,24,10,28,17,13,15,,,2.21,0.89,2.02*07
$GPGSV,3,1,11,01,05,027,16,10,24,308,26,12,22,215,37,13,35,146,20*71
$GPGSV,3,2,11,15,55,184,27,17,36,087,34,19,30,117,28,20,24,272,31*78
$GPGSV,3,3,11,24,60,278,36,28,30,052,37,39,10,116,*46
$GPGLL,5250.53462,N,00542.34914,E,073416.00,A,A*62
!AIVDM,1,1,,A,H3aKWqlT71B=9>0@9nknj00p7400,0*2C
$GPRMC,073417.00,A,5250.53459,N,00542.34921,E,0.089,,260420,,,A*77
$GPVTG,,T,,M,0.089,N,0.165,K,A*20
$GPGGA,073417.00,5250.53459,N,00542.34921,E,1,10,0.89,-1.4,M,45.8,M,,*79
$GPGSA,A,3,20,19,12,01,24,10,28,17,13,15,,,2.21,0.89,2.02*07
$GPGSV,3,1,11,01,05,027,15,10,24,308,26,12,22,215,38,13,35,146,19*77
$GPGSV,3,2,11,15,55,184,27,17,36,087,35,19,30,117,28,20,24,272,31*79
$GPGSV,3,3,11,24,60,278,36,28,30,052,37,39,10,116,*46
$GPGLL,5250.53459,N,00542.34921,E,073417.00,A,A*6D
$GPRMC,073418.00,A,5250.53460,N,00542.34924,E,0.046,,260420,,,A*74
$GPVTG,,T,,M,0.046,N,0.085,K,A*2C
$GPGGA,073418.00,5250.53460,N,00542.34924,E,1,10,0.89,-1.4,M,45.8,M,,*79
$GPGSA,A,3,20,19,12,01,24,10,28,17,13,15,,,2.21,0.89,2.02*07
$GPGSV,3,1,11,01,05,027,11,10,24,308,26,12,22,215,38,13,35,146,17*7D
$GPGSV,3,2,11,15,55,184,27,17,36,087,35,19,30,117,29,20,24,272,31*78
$GPGSV,3,3,11,24,60,278,36,28,30,052,37,39,10,116,*46
$GPGLL,5250.53460,N,00542.34924,E,073418.00,A,A*6D
!AIVDM,1,1,,A,13aDp8hP00PIwTnN?`Pf4?vT20SH,0*32
$GPRMC,073419.00,A,5250.53461,N,00542.34926,E,0.033,,260420,,,A*74
$GPVTG,,T,,M,0.033,N,0.062,K,A*27
$GPGGA,073419.00,5250.53461,N,00542.34926,E,1,09,0.89,-1.3,M,45.8,M,,*74
$GPGSA,A,3,20,19,12,24,10,28,17,13,15,,,,2.21,0.89,2.02*06
!AIVDM,1,1,,B,13`nu=PP010J9B4N?7OidOvV0D0T,0*2E
$GPGSV,3,1,11,01,05,027,09,10,24,308,25,12,22,215,38,13,35,146,16*76
!AIVDM,1,1,,A,140Ut9@P000J926N?33h0?vV00S2,0*0B
$GPGSV,3,2,11,15,55,184,27,17,36,087,35,19,30,117,29,20,24,272,31*78
$GPGSV,3,3,11,24,60,278,37,28,30,052,37,39,10,116,*47
$GPGLL,5250.53461,N,00542.34926,E,073419.00,A,A*6F
!AIVDM,1,1,,A,13aGt4@P00PIwsPN?f1P0?vVR<1`,0*79
!AIVDM,1,1,,B,13aEP6?P000J8dBN?6Ff4?vV08;`,0*71
$GPRMC,073420.00,A,5250.53463,N,00542.34929,E,0.019,,260420,,,A*7B
$GPVTG,,T,,M,0.019,N,0.035,K,A*2D
$GPGGA,073420.00,5250.53463,N,00542.34929,E,1,09,0.89,-1.2,M,45.8,M,,*72
$GPGSA,A,3,20,19,12,24,10,28,17,13,15,,,,2.21,0.89,2.02*06
$GPGSV,3,1,11,01,05,027,09,10,24,308,25,12,22,215,38,13,35,146,16*76
$GPGSV,3,2,11,15,55,184,27,17,36,087,35,19,30,117,29,20,24,272,31*78
$GPGSV,3,3,11,24,60,278,37,28,30,052,37,39,10,116,*47
$GPGLL,5250.53463,N,00542.34929,E,073420.00,A,A*68
$GPRMC,073421.00,A,5250.53464,N,00542.34933,E,0.009,,260420,,,A*77
$GPVTG,,T,,M,0.009,N,0.016,K,A*2D
$GPGGA,073421.00,5250.53464,N,00542.34933,E,1,09,0.89,-1.1,M,45.8,M,,*7C
$GPGSA,A,3,20,19,12,24,10,28,17,13,15,,,,2.21,0.89,2.02*06
$GPGSV,3,1,11,01,05,027,08,10,24,308,26,12,22,215,38,13,35,146,16*74
$GPGSV,3,2,11,15,55,184,27,17,36,087,35,19,30,117,28,20,24,272,31*79
$GPGSV,3,3,11,24,60,278,37,28,30,052,37,39,10,116,*47
$GPGLL,5250.53464,N,00542.34933,E,073421.00,A,A*65
$GPRMC,073422.00,A,5250.53466,N,00542.34936,E,0.026,,260420,,,A*7E
$GPVTG,,T,,M,0.026,N,0.048,K,A*2B
$GPGGA,073422.00,5250.53466,N,00542.34936,E,1,10,0.89,-1.1,M,45.8,M,,*70
$GPGSA,A,3,20,19,12,01,24,10,28,17,13,15,,,2.21,0.89,2.02*07
$GPGSV,3,1,11,01,05,027,10,10,24,308,26,12,22,215,38,13,35,146,17*7C
$GPGSV,3,2,11,15,55,184,27,17,36,087,36,19,30,117,29,20,24,272,30*7A
$GPGSV,3,3,11,24,60,278,37,28,30,052,37,39,10,116,*47
$GPGLL,5250.53466,N,00542.34936,E,073422.00,A,A*61
$GPRMC,073423.00,A,5250.53466,N,00542.34941,E,0.075,,260420,,,A*79
$GPVTG,,T,,M,0.075,N,0.138,K,A*2B
$GPGGA,073423.00,5250.53466,N,00542.34941,E,1,09,0.89,-1.0,M,45.8,M,,*78
!AIVDM,1,1,,B,13aFgE@P11PIu0VN>t>iCwvf2@=`,0*60
$GPGSA,A,3,20,19,12,24,10,28,17,13,15,,,,2.21,0.89,2.02*06
$GPGSV,3,1,11,01,05,027,09,10,24,308,27,12,22,215,38,13,35,146,18*7A
$GPGSV,3,2,11,15,55,184,27,17,36,087,36,19,30,117,29,20,24,272,31*7B
$GPGSV,3,3,11,24,60,278,37,28,30,052,37,39,10,116,*47
$GPGLL,5250.53466,N,00542.34941,E,073423.00,A,A*60
!AIVDM,1,1,,A,13`mgh@000PJ7etN?5QN46Pf0@=s,0*3B
$GPRMC,073424.00,A,5250.53467,N,00542.34944,E,0.026,,260420,,,A*7C
$GPVTG,,T,,M,0.026,N,0.049,K,A*2A
$GPGGA,073424.00,5250.53467,N,00542.34944,E,1,10,0.89,-0.8,M,45.8,M,,*7A
$GPGSA,A,3,20,19,12,01,24,10,28,17,13,15,,,2.21,0.89,2.02*07
$GPGSV,3,1,11,01,05,027,12,10,24,308,27,12,22,215,37,13,35,146,17*70
$GPGSV,3,2,11,15,55,184,27,17,36,087,36,19,30,117,30,20,24,272,31*73
$GPGSV,3,3,11,24,60,278,37,28,30,052,37,39,10,116,*47
$GPGLL,5250.53467,N,00542.34944,E,073424.00,A,A*63
$GPRMC,073425.00,A,5250.53467,N,00542.34947,E,0.019,,260420,,,A*72
$GPVTG,,T,,M,0.019,N,0.035,K,A*2D
$GPGGA,073425.00,5250.53467,N,00542.34947,E,1,10,0.89,-0.6,M,45.8,M,,*76
$GPGSA,A,3,20,19,12,01,24,10,28,17,13,15,,,2.21,0.89,2.02*07
$GPGSV,3,1,11,01,05,027,12,10,24,308,28,12,22,215,37,13,35,146,17*7F
$GPGSV,3,2,11,15,55,184,27,17,36,087,36,19,30,117,30,20,24,272,30*72
$GPGSV,3,3,11,24,60,278,37,28,30,052,37,39,10,116,*47
$GPGLL,5250.53467,N,00542.34947,E,073425.00,A,A*61
!AIVDM,1,1,,A,13aGrVHP000J8WNN?5@h0?vj0<0m,0*4B
!AIVDM,1,1,,A,13aDq30P00PJ8BpN?0;P0?vl2@?A,0*00
$GPRMC,073426.00,A,5250.53465,N,00542.34950,E,0.098,,260420,,,A*7C
$GPVTG,,T,,M,0.098,N,0.182,K,A*29
$GPGGA,073426.00,5250.53465,N,00542.34950,E,1,10,0.89,-0.4,M,45.8,M,,*73
$GPGSA,A,3,20,19,12,01,24,10,28,17,13,15,,,2.21,0.89,2.02*07
$GPGSV,3,1,11,01,05,027,12,10,24,308,28,12,22,215,37,13,35,146,15*7D
$GPGSV,3,2,11,15,55,184,26,17,36,087,36,19,30,117,30,20,24,272,29*7B
$GPGSV,3,3,11,24,60,278,37,28,30,052,37,39,10,116,*47
$GPGLL,5250.53465,N,00542.34950,E,073426.00,A,A*66
$GPRMC,073427.00,A,5250.53464,N,00542.34953,E,0.020,,260420,,,A*7C
$GPVTG,,T,,M,0.020,N,0.036,K,A*24
$GPGGA,073427.00,5250.53464,N,00542.34953,E,1,10,0.89,-0.3,M,45.8,M,,*77
$GPGSA,A,3,20,19,12,01,24,10,28,17,13,15,,,2.21,0.89,2.02*07
$GPGSV,3,1,11,01,05,027,10,10,24,308,29,12,22,215,38,13,35,146,14*70
$GPGSV,3,2,11,15,55,184,26,17,36,087,36,19,30,117,30,20,24,272,29*7B
$GPGSV,3,3,11,24,60,278,37,28,30,052,37,39,10,116,*47
$GPGLL,5250.53464,N,00542.34953,E,073427.00,A,A*65
$GPRMC,073428.00,A,5250.53466,N,00542.34954,E,0.036,,260420,,,A*71
$GPVTG,,T,,M,0.036,N,0.067,K,A*27
$GPGGA,073428.00,5250.53466,N,00542.34954,E,1,09,0.89,-0.1,M,45.8,M,,*77
$GPGSA,A,3,20,19,12,24,10,28,17,13,15,,,,2.21,0.89,2.02*06
$GPGSV,3,1,11,01,05,027,,10,24,308,29,12,22,215,38,13,35,146,14*71
$GPGSV,3,2,11,15,55,184,26,17,36,087,36,19,30,117,30,20,24,272,29*7B
$GPGSV,3,3,11,24,60,278,37,28,30,052,37,39,10,116,*47
$GPGLL,5250.53466,N,00542.34954,E,073428.00,A,A*6F
!AIVDM,1,1,,B,35R3Vn50000J9PBN?7pFg7lp0Dlr,0*78
!AIVDM,1,1,,B,33aDp8hP00PIwU`N?`Ov4?vr2@3Q,0*1C
$GPRMC,073429.00,A,5250.53467,N,00542.34954,E,0.006,,260420,,,A*72
$GPVTG,,T,,M,0.006,N,0.012,K,A*26
$GPGGA,073429.00,5250.53467,N,00542.34954,E,1,08,0.96,-0.1,M,45.8,M,,*78
$GPGSA,A,3,20,19,12,24,10,28,17,15,,,,,2.25,0.96,2.03*0F
$GPGSV,3,1,11,01,05,027,,10,24,308,29,12,22,215,38,13,35,146,*74
!AIVDM,1,1,,A,13aEP6?P000J8dBN?6EN4?vr08A>,0*59
$GPGSV,3,2,11,15,55,184,26,17,36,087,35,19,30,117,30,20,24,272,29*78
$GPGSV,3,3,11,24,60,278,37,28,30,052,37,39,10,116,*47
$GPGLL,5250.53467,N,00542.34954,E,073429.00,A,A*6F
!AIVDM,1,1,,B,B3aDBL@00H6NhmWSj:M0;wfUoP06,0*65
!AIVDM,1,1,,A,13`nu=PP000J9B0N?7Oh0?vr08AQ,0*21
$GPRMC,073430.00,A,5250.53470,N,00542.34954,E,0.014,,260420,,,A*7F
$GPVTG,,T,,M,0.014,N,0.025,K,A*21
$GPGGA,073430.00,5250.53470,N,00542.34954,E,1,09,0.96,0.0,M,45.8,M,,*5B
$GPGSA,A,3,20,19,12,24,10,28,17,13,15,,,,2.25,0.96,2.03*0D
$GPGSV,3,1,11,01,05,027,,10,24,308,30,12,22,215,38,13,35,146,18*75
!AIVDM,1,1,,B,140Ut9@P000J924N?3300?vt0@Al,0*4C
$GPGSV,3,2,11,15,55,184,26,17,36,087,35,19,30,117,30,20,24,272,29*78
$GPGSV,3,3,11,24,60,278,37,28,30,052,37,39,10,116,*47
$GPGLL,5250.53470,N,00542.34954,E,073430.00,A,A*61
$GPRMC,073431.00,A,5250.53472,N,00542.34956,E,0.031,,260420,,,A*79
$GPVTG,,T,,M,0.031,N,0.057,K,A*23
$GPGGA,073431.00,5250.53472,N,00542.34956,E,1,10,0.96,0.1,M,45.8,M,,*53
$GPGSA,A,3,20,19,12,01,24,10,28,17,13,15,,,2.25,0.96,2.03*0C
$GPGSV,3,1,11,01,05,027,13,10,24,308,30,12,22,215,38,13,35,146,18*77
$GPGSV,3,2,11,15,55,184,25,17,36,087,36,19,30,117,30,20,24,272,29*78
$GPGSV,3,3,11,24,60,278,37,28,30,052,37,39,10,116,*47
$GPGLL,5250.53472,N,00542.34956,E,073431.00,A,A*60
$GPRMC,073432.00,A,5250.53474,N,00542.34958,E,0.027,,260420,,,A*75
$GPVTG,,T,,M,0.027,N,0.050,K,A*23
$GPGGA,073432.00,5250.53474,N,00542.34958,E,1,10,0.96,0.2,M,45.8,M,,*5B
$GPGSA,A,3,20,19,12,01,24,10,28,17,13,15,,,2.25,0.96,2.03*0C
$GPGSV,3,1,11,01,05,027,11,10,24,308,31,12,22,215,38,13,35,146,17*7B
$GPGSV,3,2,11,15,55,184,26,17,36,087,36,19,30,117,31,20,24,272,29*7A
$GPGSV,3,3,11,24,60,278,37,28,30,052,37,39,10,116,*47
$GPGLL,5250.53474,N,00542.34958,E,073432.00,A,A*6B
!AIVDM,1,1,,A,13aFgE@P0wPIu5hN>tlA@gw02@C?,0*00
$GPRMC,073433.00,A,5250.53481,N,00542.34958,E,0.084,,260420,,,A*77
$GPVTG,,T,,M,0.084,N,0.155,K,A*2E
$GPGGA,073433.00,5250.53481,N,00542.34958,E,1,08,0.96,0.3,M,45.8,M,,*58
$GPGSA,A,3,20,19,12,24,10,28,17,15,,,,,2.25,0.96,2.03*0F
$GPGSV,3,1,11,01,05,027,09,10,24,308,31,12,22,215,39,13,35,146,*75
$GPGSV,3,2,11,15,55,184,27,17,36,087,36,19,30,117,32,20,24,272,29*78
$GPGSV,3,3,11,24,60,278,37,28,30,052,37,39,10,116,*47
$GPGLL,5250.53481,N,00542.34958,E,073433.00,A,A*60
!AIVDM,1,1,,B,13`mgh@000PJ7elN?5PN46Q20HCp,0*01
!AIVDM,1,1,,A,13aGEVhP000IwipN?cjf4?w20d0W,0*5D
$GPRMC,073434.00,A,5250.53481,N,00542.34961,E,0.010,,260420,,,A*77
$GPVTG,,T,,M,0.010,N,0.019,K,A*2A
$GPGGA,073434.00,5250.53481,N,00542.34961,E,1,09,0.96,0.4,M,45.8,M,,*53
$GPGSA,A,3,20,19,12,24,10,28,17,13,15,,,,2.25,0.96,2.03*0D
$GPGSV,3,1,11,01,05,027,08,10,24,308,31,12,22,215,38,13,35,146,19*7D
$GPGSV,3,2,11,15,55,184,26,17,36,087,36,19,30,117,32,20,24,272,29*79
$GPGSV,3,3,11,24,60,278,37,28,30,052,37,39,10,116,*47
$GPGLL,5250.53481,N,00542.34961,E,073434.00,A,A*6D
$GPRMC,073435.00,A,5250.53484,N,00542.34961,E,0.009,,260420,,,A*7B
$GPVTG,,T,,M,0.009,N,0.016,K,A*2D
$GPGGA,073435.00,5250.53484,N,00542.34961,E,1,09,0.96,0.5,M,45.8,M,,*56
!AIVDM,1,1,,B,13aGrVHP000J8WHN?5?h0?w60<0m,0*6C
$GPGSA,A,3,20,19,12,24,10,28,17,13,15,,,,2.25,0.96,2.03*0D
$GPGSV,3,1,11,01,05,027,08,10,24,308,31,12,22,215,38,13,35,146,16*72
!AIVDM,1,1,,B,13aDq30P00PJ8BlN?0:P0?w624r8,0*05
$GPGSV,3,2,11,15,55,184,26,17,36,087,36,19,30,117,32,20,24,272,30*71
$GPGSV,3,3,11,24,60,278,37,28,30,052,37,39,10,116,*47
$GPGLL,5250.53484,N,00542.34961,E,073435.00,A,A*69
$GPRMC,073436.00,A,5250.53488,N,00542.34960,E,0.011,,260420,,,A*7C
$GPVTG,,T,,M,0.011,N,0.021,K,A*20
$GPGGA,073436.00,5250.53488,N,00542.34960,E,1,09,0.96,0.6,M,45.8,M,,*5B
$GPGSA,A,3,20,19,12,24,10,28,17,13,15,,,,2.25,0.96,2.03*0D
$GPGSV,3,1,11,01,05,027,08,10,24,308,31,12,22,215,38,13,35,146,11*75
$GPGSV,3,2,11,15,55,184,25,17,36,087,36,19,30,117,32,20,24,272,30*72
$GPGSV,3,3,11,24,60,278,37,28,30,052,37,39,10,116,*47
$GPGLL,5250.53488,N,00542.34960,E,073436.00,A,A*67
!AIVDM,1,1,,A,B3`fL1@0086R;;WSijk6;wj5oP06,0*40
$GPRMC,073437.00,A,5250.53493,N,00542.34961,E,0.007,,260420,,,A*71
$GPVTG,,T,,M,0.007,N,0.013,K,A*26
$GPGGA,073437.00,5250.53493,N,00542.34961,E,1,08,0.96,0.8,M,45.8,M,,*5E
$GPGSA,A,3,20,19,12,24,10,28,17,15,,,,,2.25,0.96,2.03*0F
$GPGSV,3,1,11,01,05,027,08,10,24,308,31,12,22,215,39,13,35,146,*74
$GPGSV,3,2,11,15,55,184,25,17,36,087,36,19,30,117,32,20,24,272,30*72
$GPGSV,3,3,11,24,60,278,37,28,30,052,37,39,10,116,*47
$GPGLL,5250.53493,N,00542.34961,E,073437.00,A,A*6D
$GPRMC,073438.00,A,5250.53497,N,00542.34959,E,0.008,,260420,,,A*7E
$GPVTG,,T,,M,0.008,N,0.016,K,A*2C
!AIVDM,1,1,,A,13aGt4@P00PIwsnN?f0h0?w<R8FH,0*4E
$GPGGA,073438.00,5250.53497,N,00542.34959,E,1,10,0.96,0.9,M,45.8,M,,*56
$GPGSA,A,3,20,19,12,01,24,10,28,17,13,15,,,2.25,0.96,2.03*0C
!AIVDM,1,1,,A,13aDp8hP00PIwUJN?`QN4?w<24r8,0*02
$GPGSV,3,1,11,01,05,027,13,10,24,308,31,12,22,215,38,13,35,146,18*76
$GPGSV,3,2,11,15,55,184,25,17,36,087,36,19,30,117,32,20,24,272,30*72
$GPGSV,3,3,11,24,60,278,37,28,30,052,37,39,10,116,*47
$GPGLL,5250.53497,N,00542.34959,E,073438.00,A,A*6D
!AIVDM,1,1,,B,13aEP6?P000J8dHN?6EN4?w<0<0?,0*6B
$GPRMC,073439.00,A,5250.53503,N,00542.34958,E,0.040,,260420,,,A*7E
$GPVTG,,T,,M,0.040,N,0.074,K,A*24
$GPGGA,073439.00,5250.53503,N,00542.34958,E,1,10,0.96,1.0,M,45.8,M,,*52
$GPGSA,A,3,20,19,12,01,24,10,28,17,13,15,,,2.25,0.96,2.03*0C
$GPGSV,3,1,11,01,05,027,13,10,24,308,31,12,22,215,38,13,35,146,18*76
$GPGSV,3,2,11,15,55,184,25,17,36,087,36,19,30,117,32,20,24,272,30*72
$GPGSV,3,3,11,24,60,278,37,28,30,052,37,39,10,116,*47
$GPGLL,5250.53503,N,00542.34958,E,073439.00,A,A*61
!AIVDM,1,1,,B,13`nu=PP000J9AfN?7P@0?w>0@GB,0*60
!AIVDM,1,1,,A,B39iTNP0086Qv27SgHkQ3wkUoP06,0*64
$GPRMC,073440.00,A,5250.53508,N,00542.34956,E,0.022,,260420,,,A*71
$GPVTG,,T,,M,0.022,N,0.041,K,A*26
!AIVDM,1,1,,A,140Ut9@P000J92BN?31h0?w@0<0h,0*5F
$GPGGA,073440.00,5250.53508,N,00542.34956,E,1,10,0.96,1.1,M,45.8,M,,*58
$GPGSA,A,3,20,19,12,01,24,10,28,17,13,15,,,2.25,0.96,2.03*0C
$GPGSV,3,1,11,01,05,027,13,10,24,308,31,12,22,215,38,13,35,146,18*76
$GPGSV,3,2,11,15,55,184,25,17,36,087,36,19,30,117,31,20,24,272,30*71
$GPGSV,3,3,11,24,60,278,37,28,30,052,37,39,10,116,*47
$GPGLL,5250.53508,N,00542.34956,E,073440.00,A,A*6A
$GPRMC,073441.00,A,5250.53513,N,00542.34955,E,0.020,,260420,,,A*7B
$GPVTG,,T,,M,0.020,N,0.037,K,A*25
$GPGGA,073441.00,5250.53513,N,00542.34955,E,1,10,0.96,1.3,M,45.8,M,,*52
$GPGSA,A,3,20,19,12,01,24,10,28,17,13,15,,,2.25,0.96,2.03*0C
$GPGSV,3,1,11,01,05,027,13,10,24,308,31,12,22,215,39,13,35,146,18*77
$GPGSV,3,2,11,15,55,184,25,17,36,087,36,19,30,117,32,20,24,272,30*72
$GPGSV,3,3,11,24,60,278,37,28,30,052,37,39,10,116,*47
$GPGLL,5250.53513,N,00542.34955,E,073441.00,A,A*62
$GPRMC,073442.00,A,5250.53519,N,00542.34952,E,0.048,,260420,,,A*7B
$GPVTG,,T,,M,0.048,N,0.090,K,A*26
$GPGGA,073442.00,5250.53519,N,00542.34952,E,1,10,0.96,1.4,M,45.8,M,,*5B
!AIVDM,1,1,,B,H3`vAqh84h<4000000000000000,2*4E
$GPGSA,A,3,20,19,12,01,24,10,28,17,13,15,,,2.25,0.96,2.03*0C
!AIVDM,2,1,5,A,539fMC400000@gGWK21ADV0l5T622222222222152Qk667>j04@CDm1D,0*62
!AIVDM,2,2,5,A,Q0CH88888888880,2*4B
$GPGSV,3,1,11,01,05,027,13,10,24,308,31,12,22,215,39,13,35,146,19*76
$GPGSV,3,2,11,15,55,184,25,17,36,087,36,19,30,117,32,20,24,272,30*72
$GPGSV,3,3,11,24,60,278,37,28,30,052,37,39,10,116,*47
!AIVDM,1,1,,A,839fMC0j2d=><>Ld<2`hq@O55:00,0*1B
$GPGLL,5250.53519,N,00542.34952,E,073442.00,A,A*6C
!AIVDM,1,1,,A,13`mgh@000PJ7elN?5PN46QD00ST,0*38
$GPRMC,073443.00,A,5250.53523,N,00542.34951,E,0.038,,260420,,,A*77
$GPVTG,,T,,M,0.038,N,0.070,K,A*2F
$GPGGA,073443.00,5250.53523,N,00542.34951,E,1,10,0.96,1.5,M,45.8,M,,*51
!AIVDM,1,1,,B,13aFgE@P0vPIu:TN>uIi=gwF28IF,0*3D
$GPGSA,A,3,20,19,12,01,24,10,28,17,13,15,,,2.25,0.96,2.03*0C
$GPGSV,3,1,11,01,05,027,13,10,24,308,31,12,22,215,39,13,35,146,19*76
$GPGSV,3,2,11,15,55,184,25,17,36,087,36,19,30,117,32,20,24,272,31*73
$GPGSV,3,3,11,24,60,278,37,28,30,052,37,39,10,116,*47
!AIVDM,1,1,,B,33aGEVhP000IwipN?cjf4?wF0jk3,0*19
$GPGLL,5250.53523,N,00542.34951,E,073443.00,A,A*67
$GPRMC,073444.00,A,5250.53526,N,00542.34951,E,0.013,,260420,,,A*7C
$GPVTG,,T,,M,0.013,N,0.023,K,A*20
$GPGGA,073444.00,5250.53526,N,00542.34951,E,1,10,0.96,1.7,M,45.8,M,,*51
$GPGSA,A,3,20,19,12,01,24,10,28,17,13,15,,,2.25,0.96,2.03*0C
$GPGSV,3,1,11,01,05,027,13,10,24,308,31,12,22,215,39,13,35,146,21*7D
$GPGSV,3,2,11,15,55,184,26,17,36,087,35,19,30,117,32,20,24,272,31*73
$GPGSV,3,3,11,24,60,278,37,28,30,052,37,39,10,116,*47
$GPGLL,5250.53526,N,00542.34951,E,073444.00,A,A*65
!AIVDM,1,1,,A,33`hBOEP?w<tSF0l4Q@>4?wv1DWJ,0*06
$GPRMC,073445.00,A,5250.53529,N,00542.34949,E,0.030,,260420,,,A*7A
$GPVTG,,T,,M,0.030,N,0.055,K,A*20
$GPGGA,073445.00,5250.53529,N,00542.34949,E,1,10,0.89,1.8,M,45.8,M,,*57
!AIVDM,1,1,,A,13aDq30P00PJ8BvN?0;h0?wJ2<0S,0*78
$GPGSA,A,3,20,19,12,01,24,10,28,17,13,15,,,2.21,0.89,2.03*06
$GPGSV,3,1,11,01,05,027,13,10,24,308,32,12,22,215,38,13,35,146,22*7C
$GPGSV,3,2,11,15,55,184,27,17,36,087,35,19,30,117,32,20,24,272,31*72
$GPGSV,3,3,11,24,60,278,37,28,30,052,37,39,10,116,*47
$GPGLL,5250.53529,N,00542.34949,E,073445.00,A,A*62
!AIVDM,1,1,,A,13aGrVHP000J8WBN?5?@0?wJ0L0m,0*41
$GPRMC,073446.00,A,5250.53533,N,00542.34946,E,0.024,,260420,,,A*78
$GPVTG,,T,,M,0.024,N,0.044,K,A*25
$GPGGA,073446.00,5250.53533,N,00542.34946,E,1,10,0.89,1.8,M,45.8,M,,*50
$GPGSA,A,3,20,19,12,01,24,10,28,17,13,15,,,2.21,0.89,2.03*06
$GPGSV,3,1,11,01,05,027,13,10,24,308,32,12,22,215,38,13,35,146,23*7D
$GPGSV,3,2,11,15,55,184,26,17,36,087,35,19,30,117,32,20,24,272,31*73
$GPGSV,3,3,11,24,60,278,37,28,30,052,37,39,10,116,*47
$GPGLL,5250.53533,N,00542.34946,E,073446.00,A,A*65
$GPRMC,073447.00,A,5250.53537,N,00542.34943,E,0.003,,260420,,,A*7D
$GPVTG,,T,,M,0.003,N,0.006,K,A*26
$GPGGA,073447.00,5250.53537,N,00542.34943,E,1,10,0.89,1.9,M,45.8,M,,*51
$GPGSA,A,3,20,19,12,01,24,10,28,17,13,15,,,2.21,0.89,2.03*06
$GPGSV,3,1,11,01,05,027,13,10,24,308,32,12,22,215,38,13,35,146,23*7D
$GPGSV,3,2,11,15,55,184,27,17,36,087,35,19,30,117,32,20,24,272,31*72
$GPGSV,3,3,11,24,60,278,37,28,30,052,37,39,10,116,*47
$GPGLL,5250.53537,N,00542.34943,E,073447.00,A,A*65
$GPRMC,073448.00,A,5250.53540,N,00542.34939,E,0.024,,260420,,,A*7A
$GPVTG,,T,,M,0.024,N,0.045,K,A*24
$GPGGA,073448.00,5250.53540,N,00542.34939,E,1,10,0.89,1.9,M,45.8,M,,*53
$GPGSA,A,3,20,19,12,01,24,10,28,17,13,15,,,2.21,0.89,2.03*06
$GPGSV,3,1,11,01,05,027,13,10,24,308,32,12,22,215,39,13,35,146,25*7A
$GPGSV,3,2,11,15,55,184,27,17,36,087,35,19,30,117,32,20,24,272,31*72
$GPGSV,3,3,11,24,60,278,37,28,30,052,37,39,10,116,*47
$GPGLL,5250.53540,N,00542.34939,E,073448.00,A,A*67
!AIVDM,1,1,,A,13aEP6?P000J8dLN?6DN4?wP04r8,0*4C
$GPRMC,073449.00,A,5250.53541,N,00542.34936,E,0.042,,260420,,,A*75
$GPVTG,,T,,M,0.042,N,0.079,K,A*2B
$GPGGA,073449.00,5250.53541,N,00542.34936,E,1,10,0.89,2.0,M,45.8,M,,*56
$GPGSA,A,3,20,19,12,01,24,10,28,17,13,15,,,2.21,0.89,2.03*06
$GPGSV,3,1,11,01,05,027,13,10,24,308,32,12,22,215,38,13,35,146,26*78
$GPGSV,3,2,11,15,55,184,27,17,36,087,35,19,30,117,32,20,24,272,30*73
$GPGSV,3,3,11,24,60,278,37,28,30,052,37,39,10,116,*47
$GPGLL,5250.53541,N,00542.34936,E,073449.00,A,A*68
$GPRMC,073450.00,A,5250.53542,N,00542.34935,E,0.016,,260420,,,A*7C
$GPVTG,,T,,M,0.016,N,0.029,K,A*2F
$GPGGA,073450.00,5250.53542,N,00542.34935,E,1,10,0.89,2.0,M,45.8,M,,*5E
$GPGSA,A,3,20,19,12,01,24,10,28,17,13,15,,,2.21,0.89,2.03*06
$GPGSV,3,1,11,01,05,027,14,10,24,308,32,12,22,215,38,13,35,146,27*7E
!AIVDM,1,1,,A,13`nu=PP000J9BHN?7P00?wT08MR,0*36
$GPGSV,3,2,11,15,55,184,27,17,36,087,35,19,30,117,33,20,24,272,30*72
$GPGSV,3,3,11,24,60,278,37,28,30,052,37,39,10,116,*47
$GPGLL,5250.53542,N,00542.34935,E,073450.00,A,A*60
!AIVDM,1,1,,B,140Ut9@P000J92RN?31P0?wT04r8,0*7A
$GPRMC,073451.00,A,5250.53545,N,00542.34932,E,0.012,,260420,,,A*79
$GPVTG,,T,,M,0.012,N,0.023,K,A*21
$GPGGA,073451.00,5250.53545,N,00542.34932,E,1,10,0.89,2.0,M,45.8,M,,*5F
$GPGSA,A,3,20,19,12,01,24,10,28,17,13,15,,,2.21,0.89,2.03*06
$GPGSV,3,1,11,01,05,027,18,10,24,308,32,12,23,216,38,13,35,146,27*70
$GPGSV,3,2,11,15,55,184,27,17,36,087,35,19,30,117,33,20,24,272,29*7A
$GPGSV,3,3,11,24,60,278,37,28,30,052,37,39,10,116,*47
$GPGLL,5250.53545,N,00542.34932,E,073451.00,A,A*61
!AIVDM,1,1,,B,B3`oj500>H6Pvw7Su:I1WwqQl@NA,0*65
!AIVDM,1,1,,B,13`lK<P00e0IwO0N?U8hj@WVP8NP,0*31
$GPRMC,073452.00,A,5250.53547,N,00542.34928,E,0.004,,260420,,,A*74
$GPVTG,,T,,M,0.004,N,0.008,K,A*2F
$GPGGA,073452.00,5250.53547,N,00542.34928,E,1,10,0.89,1.9,M,45.8,M,,*5F
$GPGSA,A,3,20,19,12,01,24,10,28,17,13,15,,,2.21,0.89,2.03*06
$GPGSV,3,1,11,01,05,027,18,10,24,308,31,12,23,216,38,13,34,146,28*7D
$GPGSV,3,2,11,15,55,184,27,17,36,087,35,19,30,117,33,20,24,272,28*7B
$GPGSV,3,3,11,24,60,278,37,28,30,052,37,39,10,116,*47
$GPGLL,5250.53547,N,00542.34928,E,073452.00,A,A*6B
$GPRMC,073453.00,A,5250.53550,N,00542.34925,E,0.039,,260420,,,A*70
$GPVTG,,T,,M,0.039,N,0.071,K,A*2F
$GPGGA,073453.00,5250.53550,N,00542.34925,E,1,10,0.89,1.8,M,45.8,M,,*54
$GPGSA,A,3,20,19,12,01,24,10,28,17,13,15,,,2.21,0.89,2.03*06
$GPGSV,3,1,11,01,05,027,18,10,24,308,31,12,23,216,38,13,34,146,27*72
$GPGSV,3,2,11,15,55,184,28,17,36,087,35,19,30,117,33,20,24,272,29*75
$GPGSV,3,3,11,24,60,278,37,28,30,052,37,39,10,116,*47
$GPGLL,5250.53550,N,00542.34925,E,073453.00,A,A*61
!AIVDM,1,1,,A,13aFgE@P0uPIu?HN>v3Q9wwb24r8,0*1C
!AIVDM,1,1,,B,13`mgh@000PJ7enN?5PN46Qd08Oa,0*38
!AIVDM,1,1,,A,13aGEVhP000IwipN?cjf4?wd0d0U,0*09
$GPRMC,073454.00,A,5250.53551,N,00542.34920,E,0.032,,260420,,,A*78
$GPVTG,,T,,M,0.032,N,0.059,K,A*2E
$GPGGA,073454.00,5250.53551,N,00542.34920,E,1,10,0.89,1.7,M,45.8,M,,*58
!AIVDM,1,1,,B,H3`vAqlT47I62>t@3jhmi00h5310,0*5E
$GPGSA,A,3,20,19,12,01,24,10,28,17,13,15,,,2.21,0.89,2.03*06
!AIVDM,1,1,,A,B3`fMU00006RE57SjWH03ws5CP06,0*6B
$GPGSV,3,1,11,01,05,027,17,10,24,308,31,12,23,216,38,13,34,146,27*7D
$GPGSV,3,2,11,15,55,183,28,17,36,087,35,19,30,117,33,20,24,272,28*73
$GPGSV,3,3,11,24,60,278,37,28,30,052,37,39,10,116,*47
$GPGLL,5250.53551,N,00542.34920,E,073454.00,A,A*62
$GPRMC,073455.00,A,5250.53552,N,00542.34917,E,0.017,,260420,,,A*79
$GPVTG,,T,,M,0.017,N,0.032,K,A*24
$GPGGA,073455.00,5250.53552,N,00542.34917,E,1,10,0.89,1.6,M,45.8,M,,*5F
$GPGSA,A,3,20,19,12,01,24,10,28,17,13,15,,,2.21,0.89,2.03*06
!AIVDM,1,1,,B,13aGrVHP000J8W:N?5>h0?wf0<0m,0*4F
$GPGSV,3,1,11,01,05,027,15,10,24,308,30,12,23,216,38,13,34,146,27*7E
$GPGSV,3,2,11,15,55,183,29,17,36,087,35,19,30,117,33,20,24,272,27*7D
$GPGSV,3,3,11,24,60,278,37,28,30,052,37,39,10,116,*47
$GPGLL,5250.53552,N,00542.34917,E,073455.00,A,A*64
$GPRMC,073456.00,A,5250.53553,N,00542.34912,E,0.012,,260420,,,A*7B
$GPVTG,,T,,M,0.012,N,0.022,K,A*20
!AIVDM,1,1,,B,13aDq30P00PJ8BrN?0?00?wh24r8,0*20
$GPGGA,073456.00,5250.53553,N,00542.34912,E,1,10,0.89,1.5,M,45.8,M,,*5B
$GPGSA,A,3,20,19,12,01,24,10,28,17,13,15,,,2.21,0.89,2.03*06
$GPGSV,3,1,11,01,05,027,12,10,24,308,30,12,23,216,38,13,34,146,26*78
$GPGSV,3,2,11,15,55,183,29,17,36,086,36,19,30,117,33,20,24,272,26*7E
$GPGSV,3,3,11,24,60,278,37,28,30,052,37,39,10,116,*47
$GPGLL,5250.53553,N,00542.34912,E,073456.00,A,A*63
$GPRMC,073457.00,A,5250.53554,N,00542.34906,E,0.015,,260420,,,A*7F
$GPVTG,,T,,M,0.015,N,0.027,K,A*22
$GPGGA,073457.00,5250.53554,N,00542.34906,E,1,10,0.89,1.3,M,45.8,M,,*5E
$GPGSA,A,3,20,19,12,01,24,10,28,17,13,15,,,2.21,0.89,2.03*06
$GPGSV,3,1,11,01,05,027,11,10,24,308,30,12,23,216,38,13,34,146,26*7B
$GPGSV,3,2,11,15,55,183,29,17,36,086,35,19,30,117,34,20,24,272,26*7A
$GPGSV,3,3,11,24,60,278,37,28,30,052,37,39,10,116,*47
$GPGLL,5250.53554,N,00542.34906,E,073457.00,A,A*60
!AIVDM,1,1,,A,H39sGlTU7B=40054;omlo0103314,0*4E
!AIVDM,1,1,,A,13aDp8hP00PIwUbN?`P>4?wj2D0t,0*73
$GPRMC,073458.00,A,5250.53555,N,00542.34901,E,0.040,,260420,,,A*76
$GPVTG,,T,,M,0.040,N,0.074,K,A*24
